FacID,SrcKey,DTSKey,Site,FileNumber,AppID,Country,D,U,Call,Ch,FromCh,City,St,Lat,Lon,DTSDist,RCAMSL,HAAT,ERP,DA,AntID,Rot,Tilt,Offset,Mask,Type,InCountry,Area,Population,Area,Population,Area,Population,,0,10,20,30,40,50,60,70,80,90,100,110,120,130,140,150,160,170,180,190,200,210,220,230,240,250,260,270,280,290,300,310,320,330,340,350,,Az,FV,Az,FV,Az,FV,Az,FV,Az,FV,Az,FV
1328,94,,0,BMPCDT20080620AMV,2000760,US,1,1,WABC-TV,7,,NEW YORK,NY,40.712991,74.013112,,518.200000,506.000000,34.0,ND,,,2.5,0,0,1,US,39405.1,22198046,39405.1,22198046,39405.1,22198046,,,,,,,,,,,,,,,,,,,,,,,,,,,,,,,,,,,,,,,,,,,,,,,,,,
147,401,,0,BLCDT20101222AAE,1431623,US,1,1,WTIC-TV,31,,HARTFORD,CT,41.703710,72.832044,,605.000000,506.000000,495,DA,105619,0.000000,1.0,0,0,1,US,24228.7,3934201,24228.7,3934201,24228.7,3934201,,0.936000,0.917000,0.905000,0.900000,0.899000,0.900000,0.905000,0.917000,0.936000,0.963000,0.988000,1.000000,0.987000,0.940000,0.854000,0.733000,0.588000,0.437000,0.302000,0.218000,0.207000,0.232000,0.245000,0.232000,0.207000,0.218000,0.302000,0.437000,0.588000,0.733000,0.854000,0.940000,0.987000,1.000000,0.988000,0.963000,,,,,,,,,,,,,
1283,130,,0,BLCDT20131129AIH,1598839,US,1,1,KJWP,2,,WILMINGTON,DE,40.041778,75.236013,,378.900000,310.800000,9.36,DA,117588,0.000000,0.5,0,0,1,US,34552.5,11043938,34552.5,11043938,34552.5,11043938,,1.000000,1.000000,1.000000,1.000000,1.000000,1.000000,1.000000,1.000000,1.000000,1.000000,1.000000,1.000000,1.000000,1.000000,1.000000,1.000000,1.000000,1.000000,1.000000,1.000000,1.000000,1.000000,1.000000,1.000000,1.000000,1.000000,1.000000,1.000000,1.000000,1.000000,1.000000,1.000000,1.000000,1.000000,1.000000,1.000000,,,,,,,,,,,,,
6048,1167,,0,BLEDT20071228ABM,1225079,US,1,1,WNYE-TV,24,,NEW YORK,NY,40.756213,73.986250,,324.200000,309.700000,151,ND,,,1.2,0,0,1,US,20163.6,18598945,20163.6,18598945,20163.6,18598945,,,,,,,,,,,,,,,,,,,,,,,,,,,,,,,,,,,,,,,,,,,,,,,,,,
6868,842,,0,BLCDT20090612AJV,1317777,US,1,1,WWLP,11,,SPRINGFIELD,MA,42.084816,72.703426,,325.000000,247.000000,15.8,DA,87511,0.000000,0.0,0,0,1,US,17199.7,2703845,17199.7,2703845,17199.7,2703845,,0.531000,0.237000,0.334000,0.471000,0.334000,0.237000,0.531000,0.697000,0.552000,0.563000,0.785000,0.999000,0.866000,0.658000,0.821000,0.965000,0.820000,0.683000,0.882000,0.998000,0.758000,0.650000,0.758000,0.998000,0.882000,0.683000,0.820000,0.965000,0.821000,0.658000,0.866000,0.999000,0.785000,0.563000,0.552000,0.697000,,,,,,,,,,,,,
7692,1560,,0,BLCDT20040723ACG,1006480,US,1,1,WBPX-TV,32,,BOSTON,MA,42.307597,71.223666,,335.000000,292.000000,300,DA,41971,0.000000,0.5,0,0,1,US,19005.5,6524393,19005.5,6524393,19005.5,6524393,,0.414000,0.472000,0.549000,0.630000,0.710000,0.784000,0.849000,0.902000,0.942000,0.970000,0.988000,0.998000,0.995000,0.983000,0.961000,0.928000,0.884000,0.826000,0.754000,0.670000,0.587000,0.510000,0.442000,0.393000,0.373000,0.390000,0.428000,0.469000,0.502000,0.523000,0.527000,0.512000,0.484000,0.448000,0.413000,0.393000,,,,,,,,,,,,,
7933,387,,0,BMLCDT20110131ASB,1412726,US,1,1,WNUV,40,,BALTIMORE,MD,39.336218,76.649414,,456.800000,372.800000,845,DA,106798,0.000000,0.8,0,0,1,US,26660.5,8607618,26660.5,8607618,26660.5,8607618,,0.602000,0.530000,0.418000,0.305000,0.356000,0.340000,0.392000,0.400000,0.347000,0.348000,0.382000,0.405000,0.505000,0.597000,0.592000,0.659000,0.851000,0.971000,0.925000,0.825000,0.904000,1.000000,0.904000,0.825000,0.919000,0.936000,0.836000,0.875000,0.995000,0.933000,0.824000,0.901000,0.975000,0.887000,0.693000,0.592000,,,,,,,,,,,,,
8616,287,,0,BLCDT20111019ACJ,1448622,US,1,1,WPVI-TV,6,,PHILADELPHIA,PA,40.042612,75.242124,,394.700000,330.000000,34.0,DA,108369,0.000000,1.0,0,0,1,US,43850.5,13259861,43850.5,13259861,43850.5,13259861,,1.000000,1.000000,1.000000,1.000000,1.000000,1.000000,1.000000,1.000000,1.000000,1.000000,1.000000,1.000000,1.000000,1.000000,1.000000,1.000000,1.000000,1.000000,1.000000,1.000000,1.000000,1.000000,1.000000,1.000000,1.000000,1.000000,1.000000,1.000000,1.000000,1.000000,1.000000,1.000000,1.000000,1.000000,1.000000,1.000000,,,,,,,,,,,,,
9610,98,,0,BMPCDT20080619AAZ,2000996,US,1,1,WCBS-TV,33,,NEW YORK,NY,40.712991,74.013112,,530.400000,519.100000,385,ND,,,1.0,0,0,1,US,30490.8,20258210,30490.8,20258210,30490.8,20258210,,,,,,,,,,,,,,,,,,,,,,,,,,,,,,,,,,,,,,,,,,,,,,,,,,
11260,651,,0,BLCDT20090819AGR,1361391,US,1,1,WIVT,34,,BINGHAMTON,NY,42.060909,75.942975,,671.000000,278.000000,345,DA,85351,0.000000,0.7,0,0,1,US,16387.2,590838,16387.2,590838,16387.2,590838,,0.265000,0.235000,0.201000,0.210000,0.290000,0.415000,0.551000,0.674000,0.769000,0.813000,0.804000,0.763000,0.730000,0.734000,0.782000,0.858000,0.937000,0.988000,1.000000,0.969000,0.911000,0.848000,0.819000,0.834000,0.889000,0.944000,0.967000,0.921000,0.820000,0.670000,0.500000,0.331000,0.233000,0.211000,0.246000,0.271000,,,,,,,,,,,,,
12499,1840,,0,BLANK0000001047,2000687,US,1,1,WPSG,32,,PHILADELPHIA,PA,40.041778,75.236013,,465.000000,400.000000,800,DA,107152,0.000000,1.0,0,0,1,US,27176.9,9273973,27176.9,9273973,27176.9,9273973,,0.194000,0.278000,0.393000,0.502000,0.599000,0.688000,0.778000,0.873000,0.951000,0.993000,0.998000,0.976000,0.944000,0.918000,0.901000,0.895000,0.908000,0.921000,0.942000,0.974000,0.995000,0.985000,0.940000,0.865000,0.775000,0.684000,0.593000,0.497000,0.392000,0.280000,0.197000,0.184000,0.226000,0.257000,0.227000,0.183000,,,,,,,,,,,,,
13594,486,,0,BLEDT20100513ABG,1368813,US,1,1,WEDW,49,,BRIDGEPORT,CT,41.278985,73.185113,,304.000000,220.000000,170,DA,98009,0.000000,0.8,0,0,1,US,13127.7,5312240,13127.7,5312240,13127.7,5312240,,0.410000,0.400000,0.480000,0.610000,0.770000,0.910000,0.990000,0.990000,0.930000,0.810000,0.640000,0.500000,0.410000,0.410000,0.450000,0.480000,0.480000,0.460000,0.410000,0.400000,0.450000,0.610000,0.770000,0.900000,0.990000,1.000000,0.930000,0.800000,0.630000,0.500000,0.410000,0.400000,0.440000,0.480000,0.490000,0.450000,,,,,,,,,,,,,
13602,801,,0,BLEDT20090618ACA,1318294,US,1,1,WEDH,45,,HARTFORD,CT,41.703710,72.832044,,604.000000,505.000000,490,DA,91370,0.000000,1.0,0,0,1,US,26565.8,4418618,26565.8,4418618,26565.8,4418618,,0.936000,0.917000,0.905000,0.900000,0.899000,0.900000,0.905000,0.917000,0.936000,0.963000,0.988000,1.000000,0.987000,0.940000,0.854000,0.733000,0.588000,0.437000,0.302000,0.218000,0.207000,0.232000,0.245000,0.232000,0.207000,0.218000,0.302000,0.437000,0.588000,0.733000,0.854000,0.940000,0.987000,1.000000,0.988000,0.963000,,,,,,,,,,,,,
13607,800,,0,BLEDT20090618ACB,1318291,US,1,1,WEDN,9,,NORWICH,CT,41.520654,72.167023,,284.000000,192.000000,4.20,DA,91371,0.000000,0.0,0,0,1,US,14316.6,2096938,14316.6,2096938,14316.6,2096938,,0.914000,0.951000,0.975000,0.993000,1.000000,0.996000,0.981000,0.955000,0.920000,0.876000,0.826000,0.771000,0.714000,0.661000,0.615000,0.583000,0.569000,0.571000,0.586000,0.607000,0.627000,0.640000,0.645000,0.641000,0.631000,0.613000,0.592000,0.579000,0.570000,0.579000,0.610000,0.650000,0.699000,0.759000,0.817000,0.869000,,,,,,,,,,,,,
13933,1546,,0,BLCDT20040908ABO,1012150,US,1,1,WYPX-TV,50,,AMSTERDAM,NY,42.984519,74.181797,,432.800000,207.000000,450,DA,38556,0.000000,0.8,0,0,1,US,13593.0,1038446,13593.0,1038446,13593.0,1038446,,0.335000,0.417000,0.533000,0.647000,0.741000,0.812000,0.860000,0.893000,0.917000,0.939000,0.959000,0.977000,0.991000,0.999000,0.999000,0.991000,0.977000,0.959000,0.939000,0.917000,0.893000,0.860000,0.812000,0.741000,0.647000,0.533000,0.417000,0.335000,0.323000,0.372000,0.432000,0.470000,0.470000,0.432000,0.372000,0.323000,,,,,,,,,,,,,
14050,635,,0,BLCDT20090911ABK,1327580,US,1,1,WCCT-TV,20,,WATERBURY,CT,41.703710,72.832044,,615.000000,516.000000,52.0,ND,,,1.0,0,0,1,US,21596.8,4044377,21596.8,4044377,21596.8,4044377,,,,,,,,,,,,,,,,,,,,,,,,,,,,,,,,,,,,,,,,,,,,,,,,,,
16455,988,,0,BLCDT20090319ADC,1271105,US,1,1,WMDT,47,,SALISBURY,MD,38.501783,75.735377,,311.600000,307.000000,350,DA,87632,0.000000,0.8,0,0,1,US,20032.9,718144,20032.9,718144,20032.9,718144,,0.733000,0.854000,0.940000,0.987000,1.000000,0.988000,0.963000,0.936000,0.917000,0.905000,0.900000,0.899000,0.900000,0.905000,0.917000,0.936000,0.963000,0.988000,1.000000,0.987000,0.940000,0.854000,0.733000,0.588000,0.437000,0.302000,0.218000,0.207000,0.232000,0.245000,0.232000,0.207000,0.218000,0.302000,0.437000,0.588000,,,,,,,,,,,,,
17010,1405,,0,BLCDT20051123AJU,1098840,US,1,1,WYOU,13,,SCRANTON,PA,41.182860,75.873530,,855.000000,471.000000,30.0,DA,71517,0.000000,0.5,0,0,1,US,32397.4,2590127,32397.4,2590127,32397.4,2590127,,1.000000,1.000000,1.000000,1.000000,1.000000,1.000000,1.000000,1.000000,1.000000,1.000000,1.000000,1.000000,1.000000,1.000000,1.000000,1.000000,1.000000,1.000000,1.000000,1.000000,1.000000,1.000000,1.000000,1.000000,1.000000,1.000000,1.000000,1.000000,1.000000,1.000000,1.000000,1.000000,1.000000,1.000000,1.000000,1.000000,,,,,,,,,,,,,
18795,93,,0,BMPCDT20090709AGX,2001101,US,1,1,WNET,13,,NEWARK,NJ,40.712991,74.013112,,518.200000,507.000000,8.10,DA,1000629,0.000000,2.5,0,0,1,US,28265.6,20145508,28265.6,20145508,28265.6,20145508,,0.946000,0.967000,0.987000,0.997000,1.000000,0.997000,0.992000,0.981000,0.964000,0.944000,0.896000,0.847000,0.800000,0.755000,0.714000,0.707000,0.707000,0.707000,0.707000,0.707000,0.707000,0.707000,0.707000,0.707000,0.707000,0.707000,0.707000,0.707000,0.714000,0.749000,0.787000,0.827000,0.865000,0.891000,0.915000,0.934000,,,,,,,,,,,,,
22206,1138,,0,BLCDT20080618AOC,1423081,US,1,1,WNYW,44,,NEW YORK,NY,40.748435,73.985695,,381.000000,367.000000,990,DA,68229,0.000000,0.8,0,0,1,US,24969.3,19465847,24969.3,19465847,24969.3,19465847,,0.887000,0.814000,0.941000,0.922000,0.910000,0.897000,0.883000,0.873000,0.865000,0.864000,0.871000,0.885000,0.859000,0.866000,0.769000,0.875000,0.568000,0.783000,0.317000,0.510000,0.099000,0.357000,0.406000,0.448000,0.480000,0.497000,0.493000,0.469000,0.431000,0.388000,0.702000,0.288000,0.511000,0.395000,0.798000,0.719000,,,,,,,,,,,,,
25453,985,,0,BLCDT20090326ABH,1303503,US,1,1,KYW-TV,26,,PHILADELPHIA,PA,40.042612,75.242124,,440.000000,375.000000,790,ND,,,0.7,0,0,1,US,32145.5,10752445,32145.5,10752445,32145.5,10752445,,,,,,,,,,,,,,,,,,,,,,,,,,,,,,,,,,,,,,,,,,,,,,,,,,
25455,304,,0,BLCDT20110914AAS,1444013,US,1,1,WJZ-TV,13,,BALTIMORE,MD,39.334829,76.650525,,378.000000,295.000000,33.8,DA,106123,0.000000,0.8,0,0,1,US,26874.0,8537468,26874.0,8537468,26874.0,8537468,,0.799000,0.880000,0.939000,0.978000,0.997000,0.999000,0.985000,0.964000,0.944000,0.935000,0.935000,0.937000,0.935000,0.935000,0.944000,0.964000,0.985000,0.999000,0.997000,0.978000,0.939000,0.880000,0.799000,0.699000,0.589000,0.493000,0.446000,0.458000,0.494000,0.512000,0.494000,0.458000,0.446000,0.493000,0.589000,0.699000,,,,,,,,,,,,,
25682,465,,0,BLCDT20100702BBL,1382720,US,1,1,WGGB-TV,40,,SPRINGFIELD,MA,42.241758,72.648702,,418.800000,324.000000,460,DA,90390,0.000000,0.8,0,0,1,US,17234.3,2594453,17234.3,2594453,17234.3,2594453,,0.380000,0.360000,0.280000,0.220000,0.260000,0.350000,0.450000,0.540000,0.600000,0.660000,0.680000,0.720000,0.760000,0.820000,0.860000,0.920000,0.960000,0.980000,1.000000,1.000000,0.985000,0.970000,0.920000,0.880000,0.830000,0.780000,0.730000,0.710000,0.680000,0.620000,0.510000,0.390000,0.260000,0.250000,0.310000,0.370000,,,,,,,,,,,,,
30429,2176,,0,BLANK0000001567,2001246,US,1,1,WEPT-CD,22,,NEWBURGH,NY,42.084979,74.099973,,977.000000,0.000000,15.0,DA,116639,170.000000,0.0,0,3,3,US,9731.3,730310,9731.3,730310,9731.3,730310,,1.000000,0.994000,0.978000,0.951000,0.915000,0.871000,0.820000,0.767000,0.715000,0.668000,0.631000,0.609000,0.602000,0.608000,0.623000,0.642000,0.659000,0.672000,0.676000,0.672000,0.659000,0.642000,0.623000,0.608000,0.602000,0.609000,0.631000,0.668000,0.715000,0.767000,0.820000,0.871000,0.915000,0.951000,0.978000,0.994000,,,,,,,,,,,,,
30577,1832,,0,BLANK0000001072,2000715,US,1,1,WUNI,29,,WORCESTER,MA,42.335926,71.715347,,613.000000,468.000000,270,ND,,,0.8,0,0,1,US,27119.2,7459791,27119.2,7459791,27119.2,7459791,,,,,,,,,,,,,,,,,,,,,,,,,,,,,,,,,,,,,,,,,,,,,,,,,,
38336,885,,0,BLEDT20090612AEP,1316886,US,1,1,WLIW,21,,GARDEN CITY,NY,40.788710,73.452067,,149.200000,111.000000,89.9,DA,85382,0.000000,1.0,0,0,1,US,10880.4,13889803,10880.4,13889803,10880.4,13889803,,0.412000,0.389000,0.391000,0.457000,0.583000,0.734000,0.871000,0.966000,1.000000,0.966000,0.871000,0.734000,0.583000,0.457000,0.391000,0.389000,0.412000,0.423000,0.412000,0.389000,0.391000,0.457000,0.583000,0.734000,0.871000,0.966000,1.000000,0.966000,0.871000,0.734000,0.583000,0.457000,0.391000,0.389000,0.412000,0.423000,,,,,,,,,,,,,
43952,67,64,2,,,,,,,,,,,40.748435,73.985695,,323.000000,309.000000,90.0,DA,96970,110.000000,1.0,,,1,,,,,,,,,1.000000,0.980000,0.940000,0.850000,0.740000,0.635000,0.525000,0.410000,0.300000,0.230000,0.150000,0.080000,0.050000,0.030000,0.030000,0.040000,0.050000,0.070000,0.080000,0.070000,0.050000,0.045000,0.035000,0.060000,0.080000,0.130000,0.170000,0.230000,0.315000,0.415000,0.530000,0.635000,0.755000,0.850000,0.930000,0.980000,,,,,,,,,,,,,
48457,357,,0,BLEDT20110427ABF,1424212,US,1,1,WNJB,8,,NEW BRUNSWICK,NJ,40.621491,74.503766,,281.000000,218.000000,40.8,DA,104545,0.000000,1.5,0,0,1,US,19070.9,15135992,19070.9,15135992,19070.9,15135992,,0.959000,0.980000,0.994000,0.999000,0.999000,0.992000,0.977000,0.954000,0.921000,0.877000,0.820000,0.752000,0.675000,0.593000,0.515000,0.454000,0.421000,0.420000,0.444000,0.477000,0.506000,0.522000,0.520000,0.501000,0.471000,0.438000,0.418000,0.425000,0.464000,0.530000,0.609000,0.691000,0.766000,0.832000,0.886000,0.928000,,,,,,,,,,,,,
48481,1209,,0,BLEDT20070611AAY,1187203,US,1,1,WNJS,22,,CAMDEN,NJ,39.728172,74.843773,,294.000000,264.000000,197,ND,,,0.5,0,0,1,US,20412.4,7153749,20412.4,7153749,20412.4,7153749,,,,,,,,,,,,,,,,,,,,,,,,,,,,,,,,,,,,,,,,,,,,,,,,,,
50063,1441,,0,BLCDT20050811AAT,1079103,US,1,1,WPXQ-TV,17,,BLOCK ISLAND,RI,41.494821,71.784514,,298.100000,228.000000,1000,DA,67093,0.000000,0.6,0,0,1,US,21994.2,3034482,21994.2,3034482,21994.2,3034482,,0.927000,0.896000,0.893000,0.907000,0.923000,0.929000,0.923000,0.907000,0.893000,0.896000,0.927000,0.970000,0.998000,0.991000,0.945000,0.872000,0.780000,0.665000,0.522000,0.354000,0.210000,0.224000,0.329000,0.376000,0.329000,0.224000,0.210000,0.354000,0.522000,0.665000,0.780000,0.872000,0.945000,0.991000,0.998000,0.970000,,,,,,,,,,,,,
50780,1851,,0,BLANK0000004498,2001794,US,1,1,WJAR,50,,PROVIDENCE,RI,41.865378,71.286857,,334.600000,306.000000,1000,DA,1000769,0.000000,0.5,0,0,1,US,24995.9,6419037,24995.9,6419037,24995.9,6419037,,0.765000,0.783000,0.846000,0.931000,0.991000,0.991000,0.931000,0.846000,0.783000,0.765000,0.784000,0.821000,0.864000,0.901000,0.917000,0.903000,0.854000,0.771000,0.665000,0.560000,0.498000,0.500000,0.525000,0.525000,0.500000,0.498000,0.560000,0.665000,0.771000,0.854000,0.903000,0.917000,0.901000,0.864000,0.821000,0.784000,,,,,,,,,,,,,
51568,230,,0,BLCDT20120511ADN,1498011,US,1,1,WTXF-TV,42,,PHILADELPHIA,PA,40.040667,75.238235,,406.600000,343.000000,620,DA,104789,0.000000,0.8,0,0,1,US,22662.9,8442679,22662.9,8442679,22662.9,8442679,,0.610000,0.635000,0.670000,0.715000,0.765000,0.820000,0.870000,0.915000,0.955000,0.980000,0.995000,1.000000,0.995000,0.980000,0.955000,0.915000,0.870000,0.820000,0.765000,0.715000,0.670000,0.635000,0.610000,0.600000,0.610000,0.625000,0.640000,0.660000,0.670000,0.670000,0.670000,0.660000,0.640000,0.625000,0.610000,0.600000,,,,,,,,,,,,,
51864,1704,,0,BLCDT20021028AAH,616149,US,1,1,WNEU,34,,MERRIMACK,NH,42.983973,71.588404,,431.000000,293.000000,80.0,DA,28154,0.000000,1.0,0,0,1,US,13461.4,3214079,13461.4,3214079,13461.4,3214079,,0.284000,0.361000,0.402000,0.374000,0.299000,0.253000,0.296000,0.427000,0.579000,0.728000,0.844000,0.917000,0.975000,1.000000,0.969000,0.890000,0.775000,0.673000,0.608000,0.569000,0.591000,0.568000,0.601000,0.666000,0.764000,0.878000,0.964000,1.000000,0.975000,0.918000,0.842000,0.731000,0.594000,0.444000,0.309000,0.250000,,,,,,,,,,,,,
51980,855,,0,BLCDT20090612AII,1378601,US,1,1,WHPX-TV,26,,NEW LONDON,CT,41.417598,72.198135,,448.600000,384.000000,475,DA,87428,0.000000,0.8,0,0,1,US,24068.9,4529769,24068.9,4529769,24068.9,4529769,,0.453000,0.460000,0.526000,0.675000,0.842000,0.959000,1.000000,0.974000,0.904000,0.805000,0.683000,0.547000,0.414000,0.304000,0.232000,0.204000,0.209000,0.225000,0.233000,0.225000,0.209000,0.204000,0.232000,0.304000,0.414000,0.547000,0.683000,0.805000,0.904000,0.974000,1.000000,0.959000,0.842000,0.675000,0.526000,0.460000,,,,,,,,,,,,,
51984,1602,,0,BLCDT20031203AFL,708991,US,1,1,WPPX-TV,31,,WILMINGTON,DE,40.041778,75.236013,,438.600000,374.000000,200,DA,39302,0.000000,0.8,0,0,1,US,18387.6,7181568,18387.6,7181568,18387.6,7181568,,0.959000,1.000000,0.959000,0.844000,0.683000,0.520000,0.417000,0.418000,0.482000,0.542000,0.566000,0.542000,0.482000,0.418000,0.417000,0.520000,0.683000,0.844000,0.959000,1.000000,0.959000,0.844000,0.683000,0.520000,0.417000,0.418000,0.482000,0.542000,0.566000,0.542000,0.482000,0.418000,0.417000,0.520000,0.683000,0.844000,,,,,,,,,,,,,
53115,1533,,0,BLCDT20041029AIL,1023606,US,1,1,WFSB,33,,HARTFORD,CT,41.775100,72.805098,,375.800000,288.800000,1000,DA,44846,0.000000,0.8,0,0,1,US,20228.1,3672981,20228.1,3672981,20228.1,3672981,,0.776000,0.760000,0.776000,0.820000,0.880000,0.940000,0.984000,1.000000,0.984000,0.940000,0.880000,0.820000,0.776000,0.760000,0.776000,0.820000,0.880000,0.940000,0.984000,1.000000,0.984000,0.940000,0.880000,0.820000,0.776000,0.760000,0.776000,0.820000,0.880000,0.940000,0.984000,1.000000,0.984000,0.940000,0.880000,0.820000,,,,,,,,,,,,,
53930,374,,0,BLCDT20110323ABF,1420818,US,1,1,WGAL,8,,LANCASTER,PA,40.034541,76.618577,,556.900000,419.000000,32.2,ND,,,0.5,0,0,1,US,32025.7,6077476,32025.7,6077476,32025.7,6077476,,,,,,,,,,,,,,,,,,,,,,,,,,,,,,,,,,,,,,,,,,,,,,,,,,
56092,1510,,0,BLEDT20050307ACR,1061731,US,1,1,WSBE-TV,21,,PROVIDENCE,RI,41.865100,71.286996,,296.000000,268.000000,50.0,DA,65226,0.000000,0.5,0,0,1,US,10966.9,3099884,10966.9,3099884,10966.9,3099884,,0.345000,0.303000,0.294000,0.307000,0.332000,0.360000,0.381000,0.392000,0.392000,0.383000,0.365000,0.341000,0.315000,0.297000,0.304000,0.341000,0.394000,0.452000,0.516000,0.586000,0.664000,0.750000,0.838000,0.914000,0.971000,0.996000,0.992000,0.970000,0.918000,0.841000,0.752000,0.660000,0.572000,0.495000,0.436000,0.395000,,,,,,,,,,,,,
59442,775,,0,BLCDT20090619ACA,1348384,US,1,1,WMAR-TV,38,,BALTIMORE,MD,39.334829,76.650525,,395.000000,312.000000,1000,ND,,,0.8,0,0,1,US,28786.9,9014074,28786.9,9014074,28786.9,9014074,,,,,,,,,,,,,,,,,,,,,,,,,,,,,,,,,,,,,,,,,,,,,,,,,,
60553,234,,0,BLCDT20120427ABO,1495233,US,1,1,WFTY-DT,23,,SMITHTOWN,NY,40.889821,72.953160,,243.000000,219.000000,655,DA,107216,0.000000,0.8,0,0,1,US,19248.5,4992764,19248.5,4992764,19248.5,4992764,,0.949000,0.968000,0.985000,0.996000,1.000000,0.996000,0.985000,0.968000,0.949000,0.928000,0.906000,0.878000,0.839000,0.780000,0.697000,0.591000,0.474000,0.369000,0.319000,0.343000,0.403000,0.455000,0.475000,0.455000,0.403000,0.343000,0.319000,0.369000,0.474000,0.591000,0.697000,0.780000,0.839000,0.878000,0.906000,0.928000,,,,,,,,,,,,,
60555,802,,0,BLCDT20090618ABZ,1293341,US,1,1,WFUT-DT,30,,NEWARK,NJ,40.748435,73.985695,,441.800000,429.000000,200,DA,87422,0.000000,1.2,0,0,1,US,23092.6,19339795,23092.6,19339795,23092.6,19339795,,0.915000,0.871000,0.820000,0.767000,0.715000,0.668000,0.631000,0.609000,0.602000,0.608000,0.623000,0.642000,0.659000,0.672000,0.676000,0.672000,0.659000,0.642000,0.623000,0.608000,0.602000,0.609000,0.631000,0.668000,0.715000,0.767000,0.820000,0.871000,0.915000,0.951000,0.978000,0.994000,1.000000,0.994000,0.978000,0.951000,,,,,,,,,,,,,
60653,724,,0,BLCDT20090622AFJ,1318855,US,1,1,WETM-TV,18,,ELMIRA,NY,42.106186,76.871070,,769.000000,376.000000,45.0,DA,85158,0.000000,1.0,0,0,1,US,15828.0,601708,15828.0,601708,15828.0,601708,,0.699000,0.653000,0.519000,0.485000,0.660000,0.744000,0.686000,0.732000,0.932000,1.000000,0.944000,0.796000,0.689000,0.720000,0.693000,0.528000,0.462000,0.641000,0.702000,0.652000,0.539000,0.485000,0.576000,0.601000,0.490000,0.467000,0.657000,0.723000,0.677000,0.557000,0.486000,0.560000,0.576000,0.480000,0.475000,0.642000,,,,,,,,,,,,,
60654,1315,,0,BLCDT20060630ACL,1172155,US,1,1,WKTV,29,,UTICA,NY,43.102570,74.940432,,692.000000,402.000000,708,DA,78206,0.000000,0.8,0,0,1,US,28239.8,1304393,28239.8,1304393,28239.8,1304393,,0.891000,0.891000,0.908000,0.943000,0.982000,1.000000,0.982000,0.943000,0.908000,0.891000,0.891000,0.908000,0.943000,0.982000,1.000000,0.982000,0.943000,0.908000,0.891000,0.891000,0.908000,0.943000,0.982000,1.000000,0.982000,0.943000,0.908000,0.891000,0.891000,0.908000,0.943000,0.982000,1.000000,0.982000,0.943000,0.908000,,,,,,,,,,,,,
60850,440,,0,BLCDT20100907AAF,1424240,US,1,1,WBPH-TV,9,,BETHLEHEM,PA,40.567182,75.434293,,452.300000,302.000000,80.6,DA,104583,30.000000,0.0,0,0,1,US,28660.3,9195824,28660.3,9195824,28660.3,9195824,,1.000000,1.000000,1.000000,1.000000,1.000000,1.000000,1.000000,1.000000,1.000000,1.000000,1.000000,1.000000,1.000000,0.997000,0.981000,0.952000,0.910000,0.855000,0.791000,0.745000,0.701000,0.682000,0.680000,0.693000,0.700000,0.693000,0.680000,0.682000,0.701000,0.745000,0.793000,0.855000,0.910000,0.952000,0.981000,0.997000,,,,,,,,,,,,,
61111,1342,,0,BLCDT20060626ABE,1135000,US,1,1,WMGM-TV,36,,WILDWOOD,NJ,39.124558,74.765164,,128.600000,126.500000,205,DA,70520,0.000000,0.6,0,0,1,US,12965.6,786522,12965.6,786522,12965.6,786522,,0.989000,0.994000,0.987000,0.974000,0.921000,0.811000,0.695000,0.604000,0.504000,0.363000,0.235000,0.190000,0.195000,0.193000,0.228000,0.348000,0.495000,0.602000,0.691000,0.803000,0.917000,0.979000,0.993000,0.999000,0.996000,0.972000,0.941000,0.937000,0.963000,0.985000,0.992000,0.987000,0.966000,0.938000,0.935000,0.963000,,,,,,,,,,,,,
62210,1381,,0,BLCDT20060320AFC,1124888,US,1,1,WICZ-TV,8,,BINGHAMTON,NY,42.056187,75.943808,,765.300000,371.000000,7.90,DA,70921,0.000000,0.5,0,0,1,US,20959.2,764342,20959.2,764342,20959.2,764342,,0.372000,0.382000,0.453000,0.562000,0.682000,0.802000,0.919000,0.977000,1.000000,0.977000,0.919000,0.802000,0.682000,0.562000,0.452000,0.382000,0.372000,0.362000,0.372000,0.382000,0.453000,0.562000,0.682000,0.802000,0.919000,0.977000,1.000000,0.977000,0.919000,0.802000,0.682000,0.562000,0.452000,0.382000,0.372000,0.362000,,,,,,,,,,,,,
63153,634,,0,BLCDT20090914AAX,1332939,US,1,1,WCAU,34,,PHILADELPHIA,PA,40.041778,75.236013,,464.300000,400.100000,700,ND,,,1.0,0,0,1,US,30388.7,10290701,30388.7,10290701,30388.7,10290701,,,,,,,,,,,,,,,,,,,,,,,,,,,,,,,,,,,,,,,,,,,,,,,,,,
64690,1323,,0,BLCDT20060629AFR,1136183,US,1,1,WQPX-TV,32,,SCRANTON,PA,41.435079,75.726025,,712.600000,354.000000,528,DA,59210,0.000000,0.8,0,0,1,US,20198.7,1054412,20198.7,1054412,20198.7,1054412,,0.899000,0.900000,0.905000,0.917000,0.936000,0.963000,0.988000,1.000000,0.987000,0.940000,0.854000,0.733000,0.588000,0.437000,0.302000,0.218000,0.207000,0.232000,0.245000,0.232000,0.207000,0.218000,0.302000,0.437000,0.588000,0.733000,0.854000,0.940000,0.987000,1.000000,0.988000,0.963000,0.936000,0.917000,0.905000,0.900000,,,,,,,,,,,,,
65696,282,,0,BLCDT20111102ACP,1434843,US,1,1,WBAL-TV,11,,BALTIMORE,MD,39.334829,76.650525,,383.000000,299.000000,26.6,ND,,,0.8,0,0,1,US,28322.7,8757195,28322.7,8757195,28322.7,8757195,,,,,,,,,,,,,,,,,,,,,,,,,,,,,,,,,,,,,,,,,,,,,,,,,,
68137,2219,,0,BLANK0000001453,2001099,US,1,1,W24BB-D,24,,EAST STROUDSBURG,PA,41.026727,75.504326,,679.170000,0.000000,0.800,DA,119939,110.000000,0.0,0,2,3,US,1607.3,192553,1607.3,192553,1607.3,192553,,1.000000,0.945000,0.830000,0.795000,0.925000,0.995000,0.975000,0.920000,0.835000,0.715000,0.580000,0.410000,0.135000,0.020000,0.020000,0.020000,0.020000,0.020000,0.020000,0.020000,0.020000,0.020000,0.020000,0.020000,0.130000,0.395000,0.560000,0.710000,0.825000,0.915000,0.975000,0.990000,0.895000,0.784000,0.827000,0.955000,,,,,,,,,,,,,
69271,203,,0,BLEDT20120831AAG,1510492,US,1,1,WEKW-TV,49,,KEENE,NH,43.033413,72.367309,,607.600000,331.400000,112,ND,,,1.0,0,0,1,US,13630.4,501910,13630.4,501910,13630.4,501910,,,,,,,,,,,,,,,,,,,,,,,,,,,,,,,,,,,,,,,,,,,,,,,,,,
70158,2004,,0,BLDTA20110902AAP,1442711,US,1,1,WVVH-CD,50,,SOUTHAMPTON,NY,40.955655,72.253970,,31.700000,0.000000,15.0,DA,88622,0.000000,0.0,0,2,3,US,1086.0,69418,1086.0,69418,1086.0,69418,,0.211000,0.217000,0.200000,0.195000,0.293000,0.336000,0.427000,0.436000,0.317000,0.348000,0.259000,0.199000,0.181000,0.165000,0.136000,0.128000,0.102000,0.073000,0.102000,0.181000,0.264000,0.383000,0.541000,0.736000,0.929000,1.000000,0.923000,0.836000,0.719000,0.601000,0.463000,0.406000,0.312000,0.275000,0.231000,0.225000,,,,,,,,,,,,,
71218,803,,0,BLCDT20090618ABK,1289965,US,1,1,WBOC-TV,21,,SALISBURY,MD,38.504838,75.643262,,288.000000,279.000000,740,DA,90492,0.000000,0.8,0,0,1,US,22210.8,783353,22210.8,783353,22210.8,783353,,0.980000,0.854000,0.649000,0.559000,0.588000,0.509000,0.371000,0.413000,0.484000,0.468000,0.375000,0.415000,0.560000,0.580000,0.568000,0.730000,0.918000,0.996000,0.979000,0.861000,0.669000,0.531000,0.491000,0.394000,0.242000,0.267000,0.333000,0.319000,0.233000,0.297000,0.446000,0.505000,0.570000,0.749000,0.921000,0.996000,,,,,,,,,,,,,
71225,1404,,0,BLCDT20051123AJX,1098846,US,1,1,WBRE-TV,11,,WILKES-BARRE,PA,41.182860,75.873530,,855.000000,471.000000,30.0,DA,71517,0.000000,0.5,0,0,1,US,32802.8,2620364,32802.8,2620364,32802.8,2620364,,1.000000,1.000000,1.000000,1.000000,1.000000,1.000000,1.000000,1.000000,1.000000,1.000000,1.000000,1.000000,1.000000,1.000000,1.000000,1.000000,1.000000,1.000000,1.000000,1.000000,1.000000,1.000000,1.000000,1.000000,1.000000,1.000000,1.000000,1.000000,1.000000,1.000000,1.000000,1.000000,1.000000,1.000000,1.000000,1.000000,,,,,,,,,,,,,
72096,900,,0,BLEDT20090612ACH,1316405,US,1,1,WGBY-TV,22,,SPRINGFIELD,MA,42.241480,72.648424,,403.900000,306.000000,50.0,ND,,,0.8,0,0,1,US,14259.2,2186993,14259.2,2186993,14259.2,2186993,,,,,,,,,,,,,,,,,,,,,,,,,,,,,,,,,,,,,,,,,,,,,,,,,,
72278,1916,,0,BLDTA20130920ADK,1575510,US,1,1,WPHA-CD,24,,PHILADELPHIA,PA,40.041667,75.236124,,312.000000,0.000000,15.0,DA,110622,135.000000,0.0,0,3,3,US,4697.1,3946580,4697.1,3946580,4697.1,3946580,,1.000000,0.939000,0.792000,0.701000,0.711000,0.711000,0.701000,0.792000,0.939000,1.000000,0.967000,0.872000,0.729000,0.556000,0.378000,0.218000,0.094000,0.021000,0.010000,0.010000,0.010000,0.010000,0.010000,0.010000,0.010000,0.010000,0.010000,0.010000,0.021000,0.094000,0.218000,0.378000,0.556000,0.729000,0.872000,0.967000,,,,,,,,,,,,,
72313,156,,0,BLCDT20130703ACZ,1561569,US,1,1,WHP-TV,21,,HARRISBURG,PA,40.345366,76.868862,,540.000000,369.000000,750,DA,98648,0.000000,1.0,0,0,1,US,23462.1,2632899,23462.1,2632899,23462.1,2632899,,0.721000,0.830000,0.931000,0.987000,0.996000,0.959000,0.893000,0.810000,0.718000,0.636000,0.579000,0.565000,0.594000,0.641000,0.669000,0.658000,0.599000,0.508000,0.409000,0.332000,0.288000,0.278000,0.291000,0.325000,0.385000,0.464000,0.558000,0.653000,0.731000,0.785000,0.806000,0.789000,0.740000,0.676000,0.631000,0.644000,,,,,,,,,,,,,
72326,1551,,0,BLCDT20040812AAH,1006678,US,1,1,WHTM-TV,10,,HARRISBURG,PA,40.316199,76.949975,,469.400000,311.100000,16.2,DA,46002,0.000000,0.5,0,0,1,US,21645.8,2319920,21645.8,2319920,21645.8,2319920,,0.703000,0.638000,0.580000,0.534000,0.508000,0.503000,0.516000,0.537000,0.560000,0.578000,0.586000,0.582000,0.568000,0.547000,0.524000,0.507000,0.504000,0.522000,0.560000,0.614000,0.677000,0.742000,0.805000,0.862000,0.910000,0.948000,0.975000,0.993000,1.000000,0.997000,0.983000,0.960000,0.926000,0.882000,0.829000,0.768000,,,,,,,,,,,,,
72335,1473,,0,BLEDT20050624AAK,1069074,US,1,1,WDPB,44,,SEAFORD,DE,38.654281,75.611316,,205.000000,196.000000,98.0,DA,66096,70.000000,0.8,0,0,1,US,11384.4,584880,11384.4,584880,11384.4,584880,,1.000000,0.982000,0.905000,0.792000,0.675000,0.573000,0.489000,0.424000,0.371000,0.335000,0.309000,0.277000,0.240000,0.207000,0.188000,0.199000,0.244000,0.292000,0.315000,0.292000,0.244000,0.199000,0.188000,0.207000,0.240000,0.277000,0.309000,0.335000,0.371000,0.424000,0.489000,0.573000,0.675000,0.792000,0.905000,0.982000,,,,,,,,,,,,,
72338,305,,0,BLEDT20110907ADS,1497816,US,1,1,WHYY-TV,12,,WILMINGTON,DE,40.041778,75.239347,,359.000000,294.000000,30.0,DA,109173,0.000000,0.8,0,0,1,US,27390.5,9750143,27390.5,9750143,27390.5,9750143,,0.814000,0.881000,0.933000,0.969000,0.990000,0.999000,1.000000,0.997000,0.994000,0.991000,0.990000,0.990000,0.991000,0.994000,0.997000,1.000000,0.999000,0.990000,0.969000,0.993000,0.881000,0.814000,0.737000,0.657000,0.583000,0.523000,0.481000,0.457000,0.447000,0.447000,0.457000,0.481000,0.523000,0.583000,0.657000,0.737000,,,,,,,,,,,,,
73206,920,,0,BLCDT20090612AAC,1291033,US,1,1,WLNY-TV,47,,RIVERHEAD,NY,40.897321,72.915103,,216.400000,193.000000,1000,DA,88348,0.000000,0.8,0,0,1,US,14182.9,5788434,14182.9,5788434,14182.9,5788434,,0.120000,0.120000,0.120000,0.119000,0.114000,0.106000,0.120000,0.200000,0.280000,0.342000,0.373000,0.307000,0.237000,0.180000,0.195000,0.211000,0.179000,0.121000,0.122000,0.203000,0.309000,0.424000,0.551000,0.690000,0.852000,0.965000,1.000000,0.926000,0.781000,0.598000,0.403000,0.209000,0.128000,0.100000,0.098000,0.115000,,,,,,,,,,,,,
73263,1598,,0,BLEDT20040108ALV,922665,US,1,1,WMHT,34,,SCHENECTADY,NY,42.625356,74.010128,,681.800000,426.000000,325,ND,,,0.8,0,0,1,US,24425.2,1458986,24425.2,1458986,24425.2,1458986,,,,,,,,,,,,,,,,,,,,,,,,,,,,,,,,,,,,,,,,,,,,,,,,,,
73264,354,,0,BLCDT20110504ABZ,1423131,US,1,1,WCWN,43,,SCHENECTADY,NY,42.625356,74.010128,,681.800000,426.000000,600,ND,,,0.9,0,0,1,US,25990.5,1502161,25990.5,1502161,25990.5,1502161,,,,,,,,,,,,,,,,,,,,,,,,,,,,,,,,,,,,,,,,,,,,,,,,,,
73311,879,,0,BLCDT20090612AFT,1316908,US,1,1,WNAC-TV,12,,PROVIDENCE,RI,41.876767,71.281996,,335.000000,305.000000,30.0,ND,,,0.0,0,0,1,US,30204.0,6910690,30204.0,6910690,30204.0,6910690,,,,,,,,,,,,,,,,,,,,,,,,,,,,,,,,,,,,,,,,,,,,,,,,,,
73318,243,,0,BMLCDT20120410ABT,1494067,US,1,1,WNEP-TV,50,,SCRANTON,PA,41.182582,75.870474,,900.000000,517.000000,500,ND,,,0.8,0,0,1,US,28568.2,2422277,28568.2,2422277,28568.2,2422277,,,,,,,,,,,,,,,,,,,,,,,,,,,,,,,,,,,,,,,,,,,,,,,,,,
73333,99,,0,BLANK0000001402,2001055,US,1,1,WNJU,36,,LINDEN,NJ,40.712991,74.013112,,530.400000,519.100000,530,DA,1000616,0.000000,1.0,0,0,1,US,32551.5,20777271,32551.5,20777271,32551.5,20777271,,0.931000,0.940000,0.940000,0.897000,0.837000,0.837000,0.789000,0.811000,0.898000,0.978000,0.998000,0.950000,0.870000,0.820000,0.837000,0.882000,0.894000,0.860000,0.811000,0.781000,0.781000,0.811000,0.860000,0.894000,0.882000,0.837000,0.820000,0.870000,0.950000,0.998000,0.978000,0.898000,0.811000,0.789000,0.837000,0.897000,,,,,,,,,,,,,
73356,95,,0,BMPCDT20080620ALZ,2000956,US,1,1,WPXN-TV,31,,NEW YORK,NY,40.712991,74.013112,,530.400000,519.000000,100,ND,,,1.1,0,0,1,US,22666.0,18859697,22666.0,18859697,22666.0,18859697,,,,,,,,,,,,,,,,,,,,,,,,,,,,,,,,,,,,,,,,,,,,,,,,,,
73363,490,,0,BLCDT20100505AHT,1366827,US,1,1,WNYT,12,,ALBANY,NY,42.625356,74.010128,,691.800000,435.000000,15.0,ND,,,0.0,0,0,1,US,28431.4,1575838,28431.4,1575838,28431.4,1575838,,,,,,,,,,,,,,,,,,,,,,,,,,,,,,,,,,,,,,,,,,,,,,,,,,
73374,122,,0,BLCDT20140326AAZ,1631449,US,1,1,WSWB,31,,SCRANTON,PA,41.435912,75.728525,,710.000000,356.000000,100,ND,,,0.5,0,0,1,US,17182.7,996197,17182.7,996197,17182.7,996197,,,,,,,,,,,,,,,,,,,,,,,,,,,,,,,,,,,,,,,,,,,,,,,,,,
73375,1431,,0,BLCDT20050906ACK,1083110,US,1,1,WOLF-TV,45,,HAZLETON,PA,41.183416,75.869085,,873.000000,488.000000,420,ND,,,0.5,0,0,1,US,26175.3,1937078,26175.3,1937078,26175.3,1937078,,,,,,,,,,,,,,,,,,,,,,,,,,,,,,,,,,,,,,,,,,,,,,,,,,
73879,625,,0,BLCDT20090918ABV,1327586,US,1,1,WPHL-TV,17,,PHILADELPHIA,PA,40.041778,75.239347,,389.000000,324.000000,645,ND,,,1.0,0,0,1,US,29746.4,10216758,29746.4,10216758,29746.4,10216758,,,,,,,,,,,,,,,,,,,,,,,,,,,,,,,,,,,,,,,,,,,,,,,,,,
73881,96,,0,BMPCDT20080620ALB,1251599,US,1,1,WPIX,11,,NEW YORK,NY,40.712880,74.013195,,518.000000,506.000000,5.50,DA,87858,0.000000,0.0,0,0,1,US,27072.0,19930905,27072.0,19930905,27072.0,19930905,,0.800000,0.800000,0.800000,0.800000,0.900000,0.967000,0.947000,0.920000,0.820000,0.740000,0.740000,0.850000,0.875000,0.875000,0.875000,0.875000,0.875000,0.875000,0.875000,0.875000,0.875000,0.875000,0.875000,0.875000,0.875000,0.875000,0.875000,0.875000,0.875000,0.875000,0.875000,0.875000,0.875000,0.875000,1.000000,0.934000,,,,,,,,,,,,,
73942,316,,0,BMLCDT20110816AAF,1440078,US,1,1,WRGB,6,,SCHENECTADY,NY,42.625356,74.010128,,649.000000,392.000000,30.2,ND,,,0.0,0,0,1,US,42359.8,2372360,42359.8,2372360,42359.8,2372360,,,,,,,,,,,,,,,,,,,,,,,,,,,,,,,,,,,,,,,,,,,,,,,,,,
74034,1492,,0,BLEDT20050526ACA,1063021,US,1,1,WSKG-TV,42,,BINGHAMTON,NY,42.061187,75.945475,,803.200000,408.000000,50.0,ND,,,0.8,0,0,1,US,17875.1,618432,17875.1,618432,17875.1,618432,,,,,,,,,,,,,,,,,,,,,,,,,,,,,,,,,,,,,,,,,,,,,,,,,,
74109,1570,,0,BLCDT20040701AEC,989921,US,1,1,WTNH,10,,NEW HAVEN,CT,41.422875,72.951215,,440.000000,342.000000,20.5,DA,65037,0.000000,0.0,0,0,1,US,25694.6,6613357,25694.6,6613357,25694.6,6613357,,0.938000,0.839000,0.734000,0.838000,0.994000,0.928000,0.745000,0.751000,0.883000,0.939000,0.859000,0.758000,0.796000,0.870000,0.763000,0.535000,0.496000,0.606000,0.662000,0.573000,0.497000,0.640000,0.828000,0.827000,0.744000,0.787000,0.900000,0.938000,0.839000,0.734000,0.838000,0.994000,0.928000,0.744000,0.751000,0.883000,,,,,,,,,,,,,
74170,1525,,0,BLCDT20041203AEF,1031547,US,1,1,WVIT,35,,NEW BRITAIN,CT,41.700655,72.832044,,532.000000,434.000000,250,DA,65777,0.000000,0.8,0,0,1,US,24464.6,4466997,24464.6,4466997,24464.6,4466997,,0.773000,0.773000,0.793000,0.825000,0.848000,0.848000,0.833000,0.837000,0.885000,0.952000,0.996000,0.991000,0.947000,0.892000,0.848000,0.819000,0.796000,0.775000,0.761000,0.761000,0.775000,0.796000,0.819000,0.848000,0.892000,0.947000,0.991000,0.996000,0.952000,0.885000,0.837000,0.833000,0.848000,0.849000,0.825000,0.793000,,,,,,,,,,,,,
74197,1849,,0,BLCDT20080807AAD,1423095,US,1,1,WWOR-TV,38,,SECAUCUS,NJ,40.748435,73.985695,,410.500000,397.000000,170,ND,,,1.0,0,0,1,US,23751.6,19628557,23751.6,19628557,23751.6,19628557,,,,,,,,,,,,,,,,,,,,,,,,,,,,,,,,,,,,,,,,,,,,,,,,,,
74214,1898,,0,BLDTA20140512ACR,1636894,US,1,1,WUTH-CD,47,,HARTFORD,CT,41.708433,72.475641,,274.700000,0.000000,15.0,DA,18125,295.000000,0.0,0,3,3,US,2976.7,945999,2976.7,945999,2976.7,945999,,1.000000,0.950000,0.790000,0.500000,0.280000,0.215000,0.215000,0.235000,0.255000,0.260000,0.255000,0.245000,0.225000,0.220000,0.220000,0.225000,0.230000,0.240000,0.240000,0.240000,0.230000,0.225000,0.220000,0.220000,0.225000,0.245000,0.255000,0.260000,0.255000,0.235000,0.215000,0.215000,0.280000,0.500000,0.790000,0.950000,,,,,,,,,,,,,
74216,2124,,0,BLANK0000001669,2001337,US,1,1,WFPA-CD,28,,PHILADELPHIA,PA,40.041667,75.236124,,428.200000,0.000000,5.70,DA,20732,230.000000,0.0,0,2,3,US,5062.8,3383544,5062.8,3383544,5062.8,3383544,,1.000000,0.945000,0.830000,0.795000,0.925000,0.995000,0.975000,0.920000,0.835000,0.715000,0.580000,0.410000,0.135000,0.020000,0.020000,0.020000,0.020000,0.020000,0.020000,0.020000,0.020000,0.020000,0.020000,0.020000,0.130000,0.395000,0.560000,0.710000,0.825000,0.915000,0.975000,0.983000,0.895000,0.784000,0.827000,0.955000,,,,,,,,,,,,,
74422,1393,,0,BLCDT20060104ACC,1104362,US,1,1,WTEN,26,,ALBANY,NY,42.625356,74.010128,,681.800000,426.000000,700,DA,67986,0.000000,0.8,0,0,1,US,27002.6,1536250,27002.6,1536250,27002.6,1536250,,0.978000,0.820000,0.791000,0.930000,0.933000,0.802000,0.828000,0.932000,0.838000,0.802000,0.937000,0.942000,0.789000,0.816000,0.959000,0.877000,0.797000,0.928000,0.980000,0.856000,0.809000,0.941000,0.920000,0.794000,0.899000,0.999000,0.906000,0.802000,0.930000,0.948000,0.805000,0.859000,0.963000,0.887000,0.768000,0.901000,,,,,,,,,,,,,
74464,2000,,0,BLDTA20110928AIU,1446413,US,1,1,WPHY-CD,50,,TRENTON,NJ,40.073444,75.190733,,189.700000,0.000000,5.55,DA,106397,0.000000,1.5,0,3,3,US,2726.0,3570970,2726.0,3570970,2726.0,3570970,,0.247000,0.324000,0.437000,0.573000,0.726000,0.865000,0.988000,1.000000,0.964000,0.860000,0.679000,0.475000,0.326000,0.260000,0.255000,0.261000,0.320000,0.473000,0.819000,0.951000,1.000000,0.971000,0.889000,0.756000,0.604000,0.462000,0.344000,0.167000,0.135000,0.100000,0.110000,0.142000,0.141000,0.152000,0.167000,0.191000,,,,,,,,,,,,,
86537,1855,,0,BLANK0000001037,2000678,US,1,1,WJLP,3,,MIDDLETOWN TOWNSHIP,NJ,40.756213,73.986222,,354.400000,340.200000,6.96,ND,,,1.0,0,0,1,US,33157.3,20909552,33157.3,20909552,33157.3,20909552,,,,,,,,,,,,,,,,,,,,,,,,,,,,,,,,,,,,,,,,,,,,,,,,,,
167543,1919,,0,BLDTA20130613ABN,1559162,US,1,1,WPSJ-CD,38,,HAMMONTON,NJ,39.728172,74.843773,,286.100000,0.000000,6.00,DA,112554,305.000000,0.8,0,3,3,US,2943.6,2088508,2943.6,2088508,2943.6,2088508,,1.000000,0.780000,0.500000,0.230000,0.120000,0.085000,0.075000,0.065000,0.060000,0.050000,0.055000,0.065000,0.075000,0.100000,0.120000,0.230000,0.500000,0.780000,1.000000,0.780000,0.500000,0.230000,0.120000,0.100000,0.075000,0.065000,0.055000,0.050000,0.055000,0.065000,0.075000,0.100000,0.120000,0.230000,0.500000,0.780000,,,,,,,,,,,,,
168834,2031,,0,BLDTL20110113ABM,1413642,US,1,1,WDVB-CD,23,,EDISON,NJ,40.748435,73.985695,,313.500000,0.000000,7.00,DA,98295,260.000000,0.5,0,2,3,US,3875.4,7243939,3875.4,7243939,3875.4,7243939,,0.849000,0.704000,0.658000,0.862000,0.991000,1.000000,0.929000,0.788000,0.615000,0.437000,0.270000,0.138000,0.060000,0.026000,0.031000,0.024000,0.015000,0.026000,0.031000,0.018000,0.015000,0.028000,0.031000,0.025000,0.060000,0.138000,0.272000,0.439000,0.617000,0.786000,0.917000,0.978000,0.972000,0.857000,0.671000,0.733000,,,,,,,,,,,,,
189357,1846,,0,BLANK0000001038,2000677,US,1,1,WMDE,5,,DOVER,DE,38.954919,76.092667,,154.100000,145.000000,10.0,ND,,,0.0,0,0,1,US,25828.9,6154766,25828.9,6154766,25828.9,6154766,,,,,,,,,,,,,,,,,,,,,,,,,,,,,,,,,,,,,,,,,,,,,,,,,,
189358,124,,0,BMLCDT20140304AAS,1624705,US,1,1,WACP,4,,ATLANTIC CITY,NJ,39.734561,74.840718,,287.700000,258.400000,10.0,DA,118440,0.000000,0.0,0,0,1,US,33127.5,9086181,33127.5,9086181,33127.5,9086181,,1.000000,1.000000,1.000000,1.000000,1.000000,1.000000,1.000000,1.000000,1.000000,1.000000,1.000000,1.000000,1.000000,1.000000,1.000000,1.000000,1.000000,1.000000,1.000000,1.000000,1.000000,1.000000,1.000000,1.000000,1.000000,1.000000,1.000000,1.000000,1.000000,1.000000,1.000000,1.000000,1.000000,1.000000,1.000000,1.000000,,,,,,,,,,,,,
191822,2173,,0,BLANK0000001571,2001238,US,1,1,WQAV-CD,50,,GLASSBORO,NJ,39.555617,74.746218,,130.000000,0.000000,15.0,DA,115018,265.000000,0.0,0,3,3,US,4448.2,625634,4448.2,625634,4448.2,625634,,1.000000,0.994000,0.978000,0.951000,0.915000,0.871000,0.820000,0.767000,0.715000,0.668000,0.631000,0.609000,0.602000,0.608000,0.623000,0.642000,0.659000,0.672000,0.676000,0.672000,0.659000,0.642000,0.623000,0.608000,0.602000,0.609000,0.631000,0.668000,0.715000,0.767000,0.820000,0.871000,0.915000,0.951000,0.978000,0.994000,,,,,,,,,,,,,
2650,2073,,0,BLDTA20100126ADA,1354525,US,1,1,WFXQ-CD,28,,SPRINGFIELD,MA,42.251480,72.644813,,361.000000,0.000000,0.024,DA,72159,0.000000,0.0,0,2,3,US,530.9,226597,530.9,226597,530.9,226597,,0.237000,0.275000,0.332000,0.411000,0.512000,0.630000,0.757000,0.879000,0.965000,0.996000,0.998000,0.978000,0.901000,0.789000,0.659000,0.522000,0.397000,0.308000,0.253000,0.212000,0.178000,0.148000,0.129000,0.130000,0.151000,0.182000,0.212000,0.235000,0.236000,0.213000,0.181000,0.149000,0.128000,0.137000,0.172000,0.207000,,,,,,,,,,,,,
6463,962,,0,BLCDT20090422ABH,1307795,US,1,1,WFXT,31,,BOSTON,MA,42.302875,71.218110,,403.000000,363.000000,780,DA,85145,0.000000,0.8,0,0,1,US,25124.4,7022351,25124.4,7022351,25124.4,7022351,,0.679000,0.780000,0.853000,0.909000,0.904000,0.895000,0.843000,0.801000,0.760000,0.747000,0.776000,0.821000,0.842000,0.760000,0.763000,0.741000,0.788000,0.875000,0.951000,0.992000,0.999000,0.977000,0.922000,0.829000,0.710000,0.588000,0.478000,0.379000,0.298000,0.265000,0.278000,0.297000,0.318000,0.369000,0.458000,0.567000,,,,,,,,,,,,,
11970,141,,0,BLCDT20130916ADN,1574509,US,1,1,WXXA-TV,7,,ALBANY,NY,42.625356,74.010128,,692.000000,434.000000,15.0,ND,,,0.0,0,0,1,US,27787.4,1571920,27787.4,1571920,27787.4,1571920,,,,,,,,,,,,,,,,,,,,,,,,,,,,,,,,,,,,,,,,,,,,,,,,,,
22591,1542,,0,BLCDT20040930BBS,1016327,US,1,1,WLNE-TV,49,,NEW BEDFORD,MA,41.865100,71.286996,,313.000000,284.000000,350,DA,66255,0.000000,0.5,0,0,1,US,18651.8,5514417,18651.8,5514417,18651.8,5514417,,0.633000,0.516000,0.437000,0.423000,0.439000,0.439000,0.423000,0.437000,0.516000,0.633000,0.747000,0.834000,0.884000,0.898000,0.881000,0.845000,0.802000,0.764000,0.749000,0.775000,0.846000,0.932000,0.991000,0.991000,0.932000,0.846000,0.775000,0.749000,0.764000,0.802000,0.845000,0.881000,0.898000,0.884000,0.834000,0.747000,,,,,,,,,,,,,
23671,1001,,0,BLCDT20090227ABX,1297765,US,1,1,WWDP,10,,NORWELL,MA,42.010656,71.044489,,173.500000,142.000000,5.00,ND,,,1.5,0,0,1,US,15218.2,5402878,15218.2,5402878,15218.2,5402878,,,,,,,,,,,,,,,,,,,,,,,,,,,,,,,,,,,,,,,,,,,,,,,,,,
25456,1372,,0,BLCDT20060420ABG,1127010,US,1,1,WBZ-TV,30,,BOSTON,MA,42.310375,71.236722,,434.000000,390.000000,825,DA,72835,0.000000,0.7,0,0,1,US,31575.8,7518243,31575.8,7518243,31575.8,7518243,,1.000000,1.000000,1.000000,1.000000,1.000000,1.000000,1.000000,1.000000,1.000000,1.000000,1.000000,1.000000,1.000000,1.000000,1.000000,1.000000,1.000000,1.000000,1.000000,1.000000,1.000000,1.000000,1.000000,1.000000,1.000000,1.000000,1.000000,1.000000,1.000000,1.000000,1.000000,1.000000,1.000000,1.000000,1.000000,1.000000,,,,,,,,,,,,,
25683,1255,,0,BLCDT20061206ACS,1163014,US,1,1,WGME-TV,38,,PORTLAND,ME,43.924519,70.490612,,580.500000,465.000000,1000,DA,71807,0.000000,0.8,0,0,1,US,32171.6,1177835,32171.6,1177835,32171.6,1177835,,0.676000,0.788000,0.885000,0.955000,0.992000,0.999000,0.983000,0.950000,0.911000,0.877000,0.861000,0.876000,0.918000,0.962000,0.981000,0.962000,0.918000,0.876000,0.861000,0.877000,0.911000,0.950000,0.983000,0.999000,0.992000,0.955000,0.885000,0.788000,0.676000,0.574000,0.510000,0.490000,0.489000,0.490000,0.510000,0.574000,,,,,,,,,,,,,
26996,1925,,0,BLDVA20130502ACF,1553496,US,1,1,WYCX-CD,2,,"MANCHESTER, ETC.",VT,42.974525,72.602314,,503.860000,0.000000,1.56,DA,111052,0.000000,0.0,0,2,3,US,5016.8,145949,5016.8,145949,5016.8,145949,,0.819000,0.914000,0.992000,0.997000,0.947000,0.865000,0.761000,0.639000,0.500000,0.427000,0.348000,0.255000,0.174000,0.095000,0.039000,0.032000,0.044000,0.088000,0.176000,0.252000,0.339000,0.418000,0.469000,0.487000,0.450000,0.404000,0.323000,0.235000,0.159000,0.074000,0.045000,0.065000,0.190000,0.345000,0.511000,0.681000,,,,,,,,,,,,,
34329,483,,0,BLCDT20100520AEA,1370511,US,1,1,WNYI,20,,ITHACA,NY,42.758401,76.046035,,690.000000,237.000000,110,DA,95806,340.000000,-0.5,0,0,1,US,8993.2,631646,8993.2,631646,8993.2,631646,,1.000000,0.980000,0.950000,0.920000,0.910000,0.950000,0.990000,1.000000,0.970000,0.900000,0.760000,0.590000,0.300000,0.030000,0.030000,0.030000,0.030000,0.030000,0.030000,0.030000,0.030000,0.030000,0.030000,0.030000,0.300000,0.590000,0.760000,0.900000,0.970000,1.000000,0.990000,0.950000,0.910000,0.920000,0.950000,0.980000,,,,,,,,,,,,,
39664,1455,,0,BLCDT20050705AAH,1070338,US,1,1,WCSH,44,,PORTLAND,ME,43.858408,70.710893,,741.400000,587.900000,1000,DA,43473,0.000000,0.8,0,0,1,US,35148.3,1410274,35148.3,1410274,35148.3,1410274,,0.773000,0.880000,0.956000,0.995000,0.997000,0.970000,0.925000,0.875000,0.832000,0.812000,0.837000,0.900000,0.967000,0.995000,0.967000,0.900000,0.837000,0.812000,0.832000,0.875000,0.926000,0.970000,0.997000,0.995000,0.956000,0.880000,0.773000,0.648000,0.540000,0.487000,0.489000,0.499000,0.489000,0.487000,0.540000,0.648000,,,,,,,,,,,,,
40758,1454,,0,BLCDT20050705AAM,1063768,US,1,1,WSYT,19,,SYRACUSE,NY,42.880622,76.199649,,799.000000,445.000000,621,DA,29285,0.000000,0.8,0,0,1,US,29674.7,1630286,29674.7,1630286,29674.7,1630286,,0.374000,0.559000,0.750000,0.906000,0.988000,0.979000,0.899000,0.801000,0.762000,0.819000,0.920000,0.991000,0.988000,0.911000,0.808000,0.754000,0.800000,0.903000,0.985000,0.992000,0.908000,0.749000,0.555000,0.369000,0.237000,0.237000,0.367000,0.536000,0.684000,0.767000,0.764000,0.673000,0.522000,0.351000,0.226000,0.238000,,,,,,,,,,,,,
43424,977,,0,BLCDT20090331ADG,1303390,US,1,1,WFXV,27,,UTICA,NY,43.145347,75.175996,,458.700000,211.000000,1000,DA,89214,355.000000,1.0,0,0,1,US,16317.0,550601,16317.0,550601,16317.0,550601,,0.977000,0.997000,0.930000,0.788000,0.612000,0.486000,0.498000,0.589000,0.651000,0.634000,0.551000,0.477000,0.523000,0.682000,0.852000,0.967000,0.999000,0.947000,0.827000,0.662000,0.480000,0.309000,0.178000,0.134000,0.176000,0.231000,0.262000,0.254000,0.211000,0.154000,0.138000,0.223000,0.374000,0.553000,0.732000,0.882000,,,,,,,,,,,,,
47404,330,,0,BLCDT20110705ABQ,1434332,US,1,1,WPRI-TV,13,,PROVIDENCE,RI,41.876767,71.281996,,334.300000,305.000000,30.0,ND,,,0.8,0,0,1,US,30050.8,6900924,30050.8,6900924,30050.8,6900924,,,,,,,,,,,,,,,,,,,,,,,,,,,,,,,,,,,,,,,,,,,,,,,,,,
48413,1873,,0,BLDTA20141217ABE,1665256,US,1,1,WVMA-CD,47,,WINCHENDON,MA,43.033413,72.367309,,587.400000,0.000000,15.0,ND,,,0.8,0,3,3,US,6023.6,169927,6023.6,169927,6023.6,169927,,,,,,,,,,,,,,,,,,,,,,,,,,,,,,,,,,,,,,,,,,,,,,,,,,
57476,1243,,,,,,,,,,,,,,,,,,,,,,,,,,CA,6050.0,1016239,6050.0,1016239,6050.0,1016239,,,,,,,,,,,,,,,,,,,,,,,,,,,,,,,,,,,,,,,,,,,,,,,,,,
60551,207,,0,BLCDT20120821ABC,1512005,US,1,1,WUTF-DT,27,,MARLBOROUGH,MA,42.383983,71.493119,,437.100000,356.000000,400,DA,108564,0.000000,0.7,0,0,1,US,23663.6,7059847,23663.6,7059847,23663.6,7059847,,0.880000,0.910000,0.930000,0.950000,0.970000,0.990000,1.000000,1.000000,1.000000,0.990000,0.970000,0.950000,0.930000,0.910000,0.880000,0.840000,0.780000,0.700000,0.590000,0.470000,0.370000,0.320000,0.340000,0.400000,0.460000,0.480000,0.460000,0.400000,0.340000,0.320000,0.370000,0.470000,0.590000,0.700000,0.780000,0.840000,,,,,,,,,,,,,
65684,1765,,0,BLCDT20020102AAH,590491,US,1,1,WCVB-TV,20,,BOSTON,MA,42.310375,71.236722,,433.400000,390.000000,625,ND,,,0.7,0,0,1,US,30774.0,7456588,30774.0,7456588,30774.0,7456588,,,,,,,,,,,,,,,,,,,,,,,,,,,,,,,,,,,,,,,,,,,,,,,,,,
69237,656,,0,BLEDT20090817ABS,1327180,US,1,1,WENH-TV,11,,DURHAM,NH,43.175916,71.207564,,462.300000,304.100000,30.0,DA,87588,0.000000,0.8,0,0,1,US,28044.1,4303376,28044.1,4303376,28044.1,4303376,,0.980000,0.987000,0.993000,0.998000,1.000000,0.998000,0.993000,0.987000,0.980000,0.973000,0.964000,0.950000,0.929000,0.899000,0.860000,0.817000,0.775000,0.740000,0.715000,0.702000,0.696000,0.696000,0.696000,0.696000,0.696000,0.702000,0.715000,0.740000,0.775000,0.817000,0.860000,0.899000,0.929000,0.950000,0.964000,0.973000,,,,,,,,,,,,,
69940,1164,,,,,,,,,,,,,,,,,,,,,,,,,,CA,3560.5,195082,3560.5,195082,3560.5,195082,,,,,,,,,,,,,,,,,,,,,,,,,,,,,,,,,,,,,,,,,,,,,,,,,,
69946,1488,,0,BLEDT20050608AGC,1066947,US,1,1,WVER,9,,RUTLAND,VT,43.658677,73.106498,,641.600000,385.000000,15.0,DA,67939,0.000000,1.5,0,0,1,US,21611.0,559744,21611.0,559744,21611.0,559744,,0.332000,0.346000,0.379000,0.439000,0.520000,0.613000,0.707000,0.792000,0.864000,0.919000,0.958000,0.982000,0.995000,1.000000,1.000000,0.998000,0.996000,0.995000,0.996000,0.998000,1.000000,1.000000,0.995000,0.982000,0.958000,0.919000,0.864000,0.792000,0.707000,0.613000,0.520000,0.439000,0.379000,0.346000,0.332000,0.330000,,,,,,,,,,,,,
72098,1685,,0,BLEDT20021219AAN,621108,US,1,1,WGBX-TV,43,,BOSTON,MA,42.310375,71.236722,,434.000000,391.000000,500,ND,,,0.7,0,0,1,US,28010.3,7332002,28010.3,7332002,28010.3,7332002,,,,,,,,,,,,,,,,,,,,,,,,,,,,,,,,,,,,,,,,,,,,,,,,,,
72099,1686,,0,BLEDT20021219AAM,621102,US,1,1,WGBH-TV,19,,BOSTON,MA,42.310375,71.236722,,417.000000,374.000000,700,ND,,,0.7,0,0,1,US,32027.4,7557771,32027.4,7557771,32027.4,7557771,,,,,,,,,,,,,,,,,,,,,,,,,,,,,,,,,,,,,,,,,,,,,,,,,,
72145,403,,0,BLCDT20101217AAX,1412025,US,1,1,WHDH,42,,BOSTON,MA,42.311486,71.216166,,331.100000,288.000000,1000,ND,,,1.0,0,0,1,US,25749.6,7114492,25749.6,7114492,25749.6,7114492,,,,,,,,,,,,,,,,,,,,,,,,,,,,,,,,,,,,,,,,,,,,,,,,,,
73288,746,,0,BLCDT20090622ACH,1316058,US,1,1,WMTW,8,,POLAND SPRING,ME,43.845630,70.761450,,766.000000,612.000000,29.8,ND,,,0.8,0,0,1,US,39881.0,1560038,39881.0,1560038,39881.0,1560038,,,,,,,,,,,,,,,,,,,,,,,,,,,,,,,,,,,,,,,,,,,,,,,,,,
73292,824,,0,BLCDT20090616ABF,1342273,US,1,1,WMUR-TV,9,,MANCHESTER,NH,42.983695,71.589793,,453.000000,314.000000,6.50,DA,107250,0.000000,1.0,0,0,1,US,21790.8,4861919,21790.8,4861919,21790.8,4861919,,1.000000,1.000000,1.000000,1.000000,1.000000,1.000000,1.000000,1.000000,1.000000,1.000000,1.000000,1.000000,1.000000,1.000000,1.000000,1.000000,1.000000,1.000000,1.000000,1.000000,1.000000,1.000000,1.000000,1.000000,1.000000,1.000000,1.000000,1.000000,1.000000,1.000000,1.000000,1.000000,1.000000,1.000000,1.000000,1.000000,,,,,,,,,,,,,
73982,1716,,0,BLCDT20021009AAF,614548,US,1,1,WSBK-TV,39,,BOSTON,MA,42.310375,71.236722,,434.000000,390.000000,135,ND,,,-0.8,0,0,1,US,23017.2,7043720,23017.2,7043720,23017.2,7043720,,,,,,,,,,,,,,,,,,,,,,,,,,,,,,,,,,,,,,,,,,,,,,,,,,
74151,1287,,,,,,,,,,,,,,,,,,,,,,,,,,CA,36.1,0,36.1,0,36.1,0,,,,,,,,,,,,,,,,,,,,,,,,,,,,,,,,,,,,,,,,,,,,,,,,,,
136751,765,,0,BLCDT20090619ADK,1316983,US,1,1,WNYA,13,,PITTSFIELD,MA,42.637022,73.995406,,538.300000,301.000000,12.7,DA,89843,70.000000,2.0,0,0,1,US,20746.2,1374913,20746.2,1374913,20746.2,1374913,,1.000000,1.000000,0.980000,0.961000,0.933000,0.895000,0.857000,0.817000,0.779000,0.746000,0.729000,0.715000,0.715000,0.722000,0.734000,0.741000,0.756000,0.763000,0.767000,0.763000,0.756000,0.741000,0.734000,0.722000,0.715000,0.714000,0.729000,0.746000,0.779000,0.817000,0.857000,0.895000,0.933000,0.961000,0.981000,1.000000,,,,,,,,,,,,,
1051,329,,0,BLCDT20110706ABC,1402663,US,1,1,WJLA-TV,7,,WASHINGTON,DC,38.950389,77.079422,,309.500000,235.600000,52.0,ND,,,1.4,0,0,1,US,29248.8,8564964,29248.8,8564964,29248.8,8564964,,,,,,,,,,,,,,,,,,,,,,,,,,,,,,,,,,,,,,,,,,,,,,,,,,
4688,1375,,0,BLCDT20060413ACO,1106519,US,1,1,WHSV-TV,49,,HARRISONBURG,VA,38.601509,78.632238,,989.000000,639.000000,65.0,DA,77023,0.000000,0.5,0,0,1,US,15458.7,560879,15458.7,560879,15458.7,560879,,1.000000,1.000000,1.000000,1.000000,1.000000,1.000000,1.000000,1.000000,1.000000,1.000000,1.000000,1.000000,1.000000,1.000000,1.000000,1.000000,1.000000,1.000000,1.000000,1.000000,1.000000,1.000000,1.000000,1.000000,1.000000,1.000000,1.000000,1.000000,1.000000,1.000000,1.000000,1.000000,1.000000,1.000000,1.000000,1.000000,,,,,,,,,,,,,
10758,386,,0,BLCDT20110131ASE,1408141,US,1,1,WBFF,46,,BALTIMORE,MD,39.336218,76.649414,,456.800000,372.800000,655,DA,96405,0.000000,0.8,0,0,1,US,23485.5,7827186,23485.5,7827186,23485.5,7827186,,0.598000,0.529000,0.413000,0.384000,0.354000,0.332000,0.390000,0.400000,0.340000,0.344000,0.382000,0.400000,0.503000,0.595000,0.578000,0.650000,0.857000,0.979000,0.926000,0.810000,0.892000,1.000000,0.892000,0.810000,0.921000,0.940000,0.824000,0.860000,0.995000,0.925000,0.807000,0.900000,0.982000,0.894000,0.688000,0.576000,,,,,,,,,,,,,
20287,1490,,0,BLCDT20050603ACF,1063060,US,1,1,WATM-TV,24,,ALTOONA,PA,40.568401,78.443627,,835.700000,311.000000,1000,DA,29784,0.000000,0.5,0,0,1,US,19445.7,773979,19445.7,773979,19445.7,773979,,0.584000,0.672000,0.762000,0.847000,0.920000,0.972000,0.997000,0.994000,0.964000,0.907000,0.831000,0.745000,0.654000,0.567000,0.487000,0.418000,0.355000,0.297000,0.247000,0.210000,0.207000,0.242000,0.294000,0.340000,0.365000,0.363000,0.333000,0.283000,0.233000,0.204000,0.215000,0.256000,0.309000,0.367000,0.431000,0.503000,,,,,,,,,,,,,
22207,1148,,0,BLCDT20080507AAA,1423082,US,1,1,WTTG,36,,WASHINGTON,DC,38.956222,77.082756,,295.800000,227.000000,1000,ND,,,0.5,0,0,1,US,21996.9,7945459,21996.9,7945459,21996.9,7945459,,,,,,,,,,,,,,,,,,,,,,,,,,,,,,,,,,,,,,,,,,,,,,,,,,
23264,1785,,0,BLANK0000001691,2001370,US,1,1,WWPX-TV,12,,MARTINSBURG,WV,39.457654,78.064278,,523.800000,314.000000,23.0,ND,,,0.8,0,0,1,US,24486.1,2697387,24486.1,2697387,24486.1,2697387,,,,,,,,,,,,,,,,,,,,,,,,,,,,,,,,,,,,,,,,,,,,,,,,,,
23337,175,,0,BLCDT20121218ABM,1534367,US,1,1,WBNG-TV,7,,BINGHAMTON,NY,42.058687,75.951308,,739.200000,342.300000,34.0,ND,,,0.5,0,0,1,US,28439.2,1055579,28439.2,1055579,28439.2,1055579,,,,,,,,,,,,,,,,,,,,,,,,,,,,,,,,,,,,,,,,,,,,,,,,,,
23341,1411,,0,BLCDT20051018ACE,1092053,US,1,1,WTAJ-TV,32,,ALTOONA,PA,40.567012,78.441404,,829.920000,305.200000,883,DA,70018,0.000000,0.8,0,0,1,US,23114.6,845929,23114.6,845929,23114.6,845929,,0.970000,0.930000,0.920000,0.970000,1.000000,0.970000,0.920000,0.930000,0.970000,0.970000,0.930000,0.920000,0.970000,1.000000,0.970000,0.920000,0.930000,0.970000,0.970000,0.930000,0.920000,0.970000,1.000000,0.970000,0.920000,0.930000,0.970000,0.970000,0.930000,0.920000,0.970000,1.000000,0.970000,0.920000,0.930000,0.970000,,,,,,,,,,,,,
25045,881,,0,BLCDT20090612AFP,1316764,US,1,1,WHAG-TV,26,,HAGERSTOWN,MD,39.662595,77.964721,,559.400000,376.000000,575,DA,87531,0.000000,0.5,0,0,1,US,22323.0,1647139,22323.0,1647139,22323.0,1647139,,0.984000,0.948000,0.905000,0.876000,0.869000,0.881000,0.902000,0.913000,0.897000,0.846000,0.773000,0.716000,0.700000,0.707000,0.707000,0.700000,0.716000,0.773000,0.846000,0.897000,0.913000,0.902000,0.881000,0.869000,0.876000,0.905000,0.948000,0.984000,1.000000,0.993000,0.976000,0.962000,0.962000,0.976000,0.993000,1.000000,,,,,,,,,,,,,
27772,1189,,0,BLEDT20071018AIJ,1212755,US,1,1,WHUT-TV,33,,WASHINGTON,DC,38.950389,77.079422,,327.200000,254.000000,100,ND,,,0.5,0,0,1,US,17426.5,7599399,17426.5,7599399,17426.5,7599399,,,,,,,,,,,,,,,,,,,,,,,,,,,,,,,,,,,,,,,,,,,,,,,,,,
40618,1053,,0,BLEDT20090209AEM,1291470,US,1,1,WCPB,28,,SALISBURY,MD,38.385951,75.592147,,166.200000,155.000000,132,DA,87913,0.000000,0.5,0,0,1,US,14232.4,498887,14232.4,498887,14232.4,498887,,0.999000,0.933000,0.763000,0.640000,0.802000,0.805000,0.620000,0.752000,0.932000,0.999000,0.933000,0.763000,0.640000,0.802000,0.805000,0.620000,0.752000,0.932000,0.999000,0.933000,0.763000,0.640000,0.802000,0.805000,0.620000,0.752000,0.932000,0.999000,0.933000,0.763000,0.640000,0.802000,0.805000,0.620000,0.752000,0.932000,,,,,,,,,,,,,
40626,980,,0,BLEDT20090330AFA,1302744,US,1,1,WFPT,28,,FREDERICK,MD,39.260382,77.311929,,304.300000,158.000000,41.2,DA,87776,0.000000,0.5,0,0,1,US,7810.9,3146090,7810.9,3146090,7810.9,3146090,,0.801000,0.837000,0.868000,0.807000,0.775000,0.863000,0.954000,0.959000,0.879000,0.716000,0.535000,0.416000,0.339000,0.290000,0.272000,0.292000,0.314000,0.281000,0.229000,0.233000,0.245000,0.233000,0.226000,0.284000,0.323000,0.305000,0.273000,0.290000,0.326000,0.387000,0.523000,0.744000,0.934000,0.999000,0.976000,0.872000,,,,,,,,,,,,,
47904,1776,,0,BLCDT20000216AAT,492135,US,1,1,WRC-TV,48,,WASHINGTON,DC,38.940111,77.081367,,312.000000,242.000000,813,ND,,,0.8,0,0,1,US,22021.7,7955817,22021.7,7955817,22021.7,7955817,,,,,,,,,,,,,,,,,,,,,,,,,,,,,,,,,,,,,,,,,,,,,,,,,,
65593,376,,0,BLCDT20110314ACQ,1420088,US,1,1,WUSA,9,,WASHINGTON,DC,38.950389,77.079422,,309.500000,235.600000,52.0,ND,,,1.4,0,0,1,US,28144.3,8454840,28144.3,8454840,28144.3,8454840,,,,,,,,,,,,,,,,,,,,,,,,,,,,,,,,,,,,,,,,,,,,,,,,,,
65670,214,,0,BLEDT20120731ALN,1509472,US,1,1,WETA-TV,27,,WASHINGTON,DC,38.950389,77.079422,,327.000000,254.000000,73.0,ND,,,0.5,0,0,1,US,16539.5,7435169,16539.5,7435169,16539.5,7435169,,,,,,,,,,,,,,,,,,,,,,,,,,,,,,,,,,,,,,,,,,,,,,,,,,
65942,447,,0,BLEDT20100813BHC,1395471,US,1,1,WMPT,42,,ANNAPOLIS,MD,39.010111,76.608854,,312.500000,290.000000,516,DA,88753,0.000000,0.8,0,0,1,US,21559.7,7738532,21559.7,7738532,21559.7,7738532,,1.000000,0.989000,0.961000,0.931000,0.912000,0.912000,0.931000,0.961000,0.989000,1.000000,0.989000,0.961000,0.931000,0.912000,0.912000,0.931000,0.961000,0.989000,1.000000,0.989000,0.961000,0.931000,0.912000,0.912000,0.931000,0.961000,0.989000,1.000000,0.989000,0.961000,0.931000,0.912000,0.912000,0.931000,0.961000,0.989000,,,,,,,,,,,,,
65943,349,,0,BLEDT20110509ACP,1425803,US,1,1,WWPB,44,,HAGERSTOWN,MD,39.651206,77.970555,,547.900000,369.000000,500,DA,104333,0.000000,1.0,0,0,1,US,18995.4,1589282,18995.4,1589282,18995.4,1589282,,0.566000,0.542000,0.482000,0.418000,0.417000,0.520000,0.683000,0.844000,0.959000,1.000000,0.959000,0.844000,0.683000,0.520000,0.417000,0.418000,0.482000,0.542000,0.566000,0.542000,0.482000,0.418000,0.417000,0.520000,0.683000,0.844000,0.959000,1.000000,0.959000,0.844000,0.683000,0.520000,0.417000,0.418000,0.482000,0.542000,,,,,,,,,,,,,
65944,981,,0,BLEDT20090330AEX,1302746,US,1,1,WMPB,29,,BALTIMORE,MD,39.447328,76.779698,,464.400000,309.000000,42.6,DA,87779,0.000000,0.8,0,0,1,US,14791.0,5988134,14791.0,5988134,14791.0,5988134,,0.889000,0.840000,0.844000,0.966000,0.985000,0.865000,0.829000,0.885000,0.854000,0.830000,0.943000,0.996000,0.890000,0.823000,0.879000,0.867000,0.822000,0.917000,1.000000,0.917000,0.822000,0.867000,0.879000,0.823000,0.890000,0.999000,0.943000,0.830000,0.854000,0.886000,0.829000,0.885000,0.985000,0.965000,0.844000,0.840000,,,,,,,,,,,,,
68135,2198,,0,BLANK0000001520,2001177,US,1,1,WYLN-LP,35,,HAZLETON,PA,40.969418,75.956368,,602.000000,160.600000,5.50,DA,20732,275.000000,0.0,2,3,3,US,2157.3,156313,2157.3,156313,2157.3,156313,,1.000000,0.945000,0.830000,0.795000,0.925000,0.995000,0.975000,0.920000,0.835000,0.715000,0.580000,0.410000,0.135000,0.020000,0.020000,0.020000,0.020000,0.020000,0.020000,0.020000,0.020000,0.020000,0.020000,0.020000,0.130000,0.395000,0.560000,0.710000,0.825000,0.915000,0.975000,0.983000,0.895000,0.784000,0.827000,0.955000,,,,,,,,,,,,,
69532,228,,0,BLCDT20120515ABF,1495232,US,1,1,WFDC-DT,15,,ARLINGTON,VA,38.940111,77.081367,,296.900000,227.000000,1000,DA,106253,0.000000,0.8,0,0,1,US,23874.8,8104066,23874.8,8104066,23874.8,8104066,,0.774000,0.722000,0.696000,0.690000,0.692000,0.690000,0.685000,0.684000,0.695000,0.728000,0.788000,0.859000,0.917000,0.954000,0.966000,0.968000,0.965000,0.959000,0.964000,0.966000,0.963000,0.956000,0.944000,0.935000,0.934000,0.938000,0.943000,0.947000,0.953000,0.963000,0.979000,0.995000,1.000000,0.978000,0.925000,0.849000,,,,,,,,,,,,,
73083,1791,,0,BLANK0000001676,2001339,US,1,1,WITF-TV,36,,HARRISBURG,PA,40.345366,76.868862,,591.000000,411.000000,50.0,DA,19302,150.000000,0.5,0,0,1,US,15020.9,2031075,15020.9,2031075,15020.9,2031075,,1.000000,0.995000,0.978000,0.952000,0.915000,0.869000,0.817000,0.760000,0.702000,0.648000,0.604000,0.576000,0.564000,0.569000,0.585000,0.605000,0.625000,0.639000,0.644000,0.639000,0.625000,0.605000,0.585000,0.569000,0.564000,0.576000,0.604000,0.648000,0.702000,0.760000,0.817000,0.869000,0.915000,0.952000,0.978000,0.995000,,,,,,,,,,,,,
74091,846,,0,BLCDT20090612AIZ,1317850,US,1,1,WPXW-TV,34,,MANASSAS,VA,38.950389,77.079422,,327.000000,258.000000,1000,DA,89488,0.000000,0.5,0,0,1,US,22722.6,7988602,22722.6,7988602,22722.6,7988602,,0.982000,0.957000,0.795000,0.707000,0.871000,0.891000,0.710000,0.663000,0.860000,0.985000,0.960000,0.795000,0.711000,0.873000,0.889000,0.705000,0.661000,0.861000,0.986000,0.960000,0.795000,0.711000,0.873000,0.889000,0.705000,0.661000,0.861000,0.989000,0.965000,0.795000,0.679000,0.848000,0.903000,0.746000,0.680000,0.858000,,,,,,,,,,,,,
74416,1054,,0,BLCDT20090209ABZ,1294414,US,1,1,WRIC-TV,22,,PETERSBURG,VA,37.512648,77.601378,,393.800000,328.200000,850,ND,,,0.5,0,0,1,US,31546.6,1938201,31546.6,1938201,31546.6,1938201,,,,,,,,,,,,,,,,,,,,,,,,,,,,,,,,,,,,,,,,,,,,,,,,,,
191262,1903,,0,BLDTL20140121ACM,1619766,US,1,1,WMJF-CD,39,,TOWSON,MD,39.402884,76.603024,,212.000000,0.000000,5.00,DA,112853,110.000000,0.5,0,3,3,US,1080.7,1103629,1080.7,1103629,1080.7,1103629,,0.360000,0.390000,0.390000,0.380000,0.360000,0.430000,0.620000,0.830000,0.960000,1.000000,0.960000,0.800000,0.600000,0.400000,0.290000,0.230000,0.200000,0.200000,0.210000,0.200000,0.200000,0.230000,0.290000,0.400000,0.600000,0.800000,0.960000,1.000000,0.960000,0.830000,0.620000,0.430000,0.360000,0.380000,0.390000,0.390000,,,,,,,,,,,,,
39659,1007,,0,BLEDT20090227AAF,1297494,US,1,1,WCBB,10,,AUGUSTA,ME,44.154240,70.009774,,386.700000,304.000000,30.0,ND,,,0.5,0,0,1,US,28810.1,895189,28810.1,895189,28810.1,895189,,,,,,,,,,,,,,,,,,,,,,,,,,,,,,,,,,,,,,,,,,,,,,,,,,
48406,1615,,0,BLCDT20031014AEP,693569,US,1,1,WPXG-TV,33,,CONCORD,NH,43.184526,71.319510,,508.700000,344.000000,100,DA,42932,0.000000,0.7,0,0,1,US,16920.9,2424546,16920.9,2424546,16920.9,2424546,,0.710000,0.700000,0.690000,0.660000,0.630000,0.610000,0.600000,0.600000,0.630000,0.660000,0.710000,0.760000,0.830000,0.880000,0.930000,0.950000,0.970000,0.990000,1.000000,0.990000,0.970000,0.950000,0.930000,0.880000,0.830000,0.760000,0.710000,0.660000,0.630000,0.600000,0.600000,0.610000,0.630000,0.660000,0.690000,0.700000,,,,,,,,,,,,,
39656,1712,,0,BLEDT20021017AAR,615342,US,1,1,WMEA-TV,45,,BIDDEFORD,ME,43.416749,70.804225,,349.400000,231.000000,50.0,DA,41344,90.000000,0.8,0,0,1,US,10605.0,711970,10605.0,711970,10605.0,711970,,1.000000,0.980000,0.960000,0.940000,0.890000,0.830000,0.750000,0.680000,0.610000,0.560000,0.540000,0.500000,0.440000,0.340000,0.240000,0.180000,0.220000,0.280000,0.320000,0.280000,0.220000,0.180000,0.240000,0.340000,0.440000,0.500000,0.540000,0.560000,0.610000,0.680000,0.750000,0.830000,0.890000,0.940000,0.960000,0.980000,,,,,,,,,,,,,
46728,1795,,,,,,,,,,,,,,,,,,,,,,,,,,CA,10724.5,2076273,10724.5,2076273,10724.5,2076273,,,,,,,,,,,,,,,,,,,,,,,,,,,,,,,,,,,,,,,,,,,,,,,,,,
48408,1104,,0,BLCDT20081103ADE,1275483,US,1,1,WPME,35,,LEWISTON,ME,43.851744,70.327274,,345.000000,278.000000,14.3,ND,,,0.8,0,0,1,US,12645.4,651861,12645.4,651861,12645.4,651861,,,,,,,,,,,,,,,,,,,,,,,,,,,,,,,,,,,,,,,,,,,,,,,,,,
84088,907,,0,BLCDT20090612ABJ,1316507,US,1,1,WPFO,23,,WATERVILLE,ME,44.154240,70.009774,,416.000000,331.000000,390,DA,87649,0.000000,0.8,0,0,1,US,22153.8,843964,22153.8,843964,22153.8,843964,,0.683000,0.844000,0.959000,1.000000,0.959000,0.844000,0.683000,0.520000,0.417000,0.418000,0.482000,0.542000,0.566000,0.542000,0.482000,0.418000,0.417000,0.520000,0.683000,0.844000,0.959000,1.000000,0.959000,0.844000,0.683000,0.520000,0.417000,0.418000,0.482000,0.542000,0.566000,0.542000,0.482000,0.418000,0.417000,0.520000,,,,,,,,,,,,,
363,948,,0,BLCDT20090522ADB,1313373,US,1,1,WCAV,19,,CHARLOTTESVILLE,VA,37.984307,78.480845,,493.500000,325.600000,155,DA,87040,0.000000,1.0,0,0,1,US,17342.5,711792,17342.5,711792,17342.5,711792,,0.672000,0.752000,0.838000,0.915000,0.966000,0.993000,0.987000,0.967000,0.951000,0.942000,0.943000,0.949000,0.947000,0.942000,0.943000,0.955000,0.973000,0.993000,0.987000,0.954000,0.895000,0.811000,0.728000,0.648000,0.555000,0.455000,0.323000,0.205000,0.144000,0.124000,0.126000,0.156000,0.235000,0.367000,0.485000,0.585000,,,,,,,,,,,,,
412,1523,,0,BLCDT20041207AAW,1033696,US,1,1,WRLH-TV,26,,RICHMOND,VA,37.512648,77.601100,,393.900000,327.700000,800,ND,,,0.5,0,0,1,US,30567.0,1888620,30567.0,1888620,30567.0,1888620,,,,,,,,,,,,,,,,,,,,,,,,,,,,,,,,,,,,,,,,,,,,,,,,,,
9987,1489,,0,BLCDT20050606AHG,1072095,US,1,1,WCVE-TV,42,,RICHMOND,VA,37.512370,77.600823,,412.400000,346.300000,160,ND,,,0.6,0,0,1,US,21671.6,1528934,21671.6,1528934,21671.6,1528934,,,,,,,,,,,,,,,,,,,,,,,,,,,,,,,,,,,,,,,,,,,,,,,,,,
9989,1120,,0,BLEDT20080820ABK,1262394,US,1,1,WCVW,44,,RICHMOND,VA,37.512648,77.601100,,394.000000,328.000000,112,ND,,,0.5,0,0,1,US,20622.4,1460670,20622.4,1460670,20622.4,1460670,,,,,,,,,,,,,,,,,,,,,,,,,,,,,,,,,,,,,,,,,,,,,,,,,,
9990,1438,,0,BLEDT20050819ADO,1080424,US,1,1,WHTJ,46,,CHARLOTTESVILLE,VA,37.983196,78.483623,,499.100000,331.600000,165,DA,70070,0.000000,0.8,0,0,1,US,14409.0,463674,14409.0,463674,14409.0,463674,,1.000000,0.996000,0.985000,0.967000,0.939000,0.901000,0.851000,0.790000,0.717000,0.634000,0.548000,0.467000,0.405000,0.377000,0.386000,0.419000,0.457000,0.485000,0.496000,0.485000,0.457000,0.419000,0.386000,0.377000,0.405000,0.467000,0.548000,0.634000,0.717000,0.790000,0.851000,0.901000,0.939000,0.967000,0.985000,0.996000,,,,,,,,,,,,,
10897,1385,,0,BLCDT20060210ABA,1113591,US,1,1,WUPV,47,,ASHLAND,VA,37.742086,77.253866,,282.000000,249.000000,1000,DA,28058,0.000000,0.5,0,0,1,US,19596.6,1634843,19596.6,1634843,19596.6,1634843,,0.320000,0.270000,0.310000,0.370000,0.410000,0.410000,0.370000,0.310000,0.270000,0.320000,0.400000,0.520000,0.620000,0.700000,0.750000,0.790000,0.820000,0.850000,0.890000,0.930000,0.960000,0.990000,1.000000,1.000000,0.990000,0.960000,0.930000,0.890000,0.850000,0.820000,0.790000,0.750000,0.700000,0.620000,0.520000,0.400000,,,,,,,,,,,,,
25932,702,,0,BLEDT20090701AFO,1318280,US,1,1,WHRO-TV,16,,HAMPTON-NORFOLK,VA,36.808760,76.503004,,363.600000,360.600000,1000,DA,87388,0.000000,0.8,0,0,1,US,33399.0,2149410,33399.0,2149410,33399.0,2149410,,0.820000,0.855000,0.936000,0.997000,0.975000,0.883000,0.832000,0.898000,0.970000,0.935000,0.805000,0.689000,0.675000,0.716000,0.735000,0.721000,0.703000,0.695000,0.695000,0.695000,0.703000,0.721000,0.735000,0.716000,0.675000,0.689000,0.805000,0.935000,0.970000,0.898000,0.832000,0.883000,0.975000,0.997000,0.936000,0.855000,,,,,,,,,,,,,
30833,670,,0,BLCDT20090803ABS,1325601,US,1,1,WWBT,12,,RICHMOND,VA,37.506536,77.503041,,294.900000,242.000000,26.0,ND,,,0.8,0,0,1,US,26313.4,1713449,26313.4,1713449,26313.4,1713449,,,,,,,,,,,,,,,,,,,,,,,,,,,,,,,,,,,,,,,,,,,,,,,,,,
40759,939,,0,BLCDT20090602ABA,1314865,US,1,1,WTVZ-TV,33,,NORFOLK,VA,36.808760,76.503282,,378.600000,375.600000,960,ND,,,0.8,0,0,1,US,33988.6,2155796,33988.6,2155796,33988.6,2155796,,,,,,,,,,,,,,,,,,,,,,,,,,,,,,,,,,,,,,,,,,,,,,,,,,
47705,2035,,0,BLDTA20101223ABU,1370396,US,1,1,WAHU-CD,40,,CHARLOTTESVILLE,VA,37.984307,78.480845,,484.600000,0.000000,15.0,ND,,,0.8,0,2,3,US,8032.4,274302,8032.4,274302,8032.4,274302,,,,,,,,,,,,,,,,,,,,,,,,,,,,,,,,,,,,,,,,,,,,,,,,,,
52075,1031,,0,BLCDT20090223ABU,1423346,US,1,1,WQMY,29,,WILLIAMSPORT,PA,41.200354,77.119969,,539.000000,243.000000,50.0,DA,90263,0.000000,0.5,0,0,1,US,9177.6,251809,9177.6,251809,9177.6,251809,,0.258000,0.324000,0.451000,0.622000,0.781000,0.897000,0.974000,1.000000,0.967000,0.889000,0.764000,0.600000,0.432000,0.302000,0.242000,0.237000,0.242000,0.237000,0.242000,0.302000,0.432000,0.600000,0.764000,0.889000,0.967000,1.000000,0.974000,0.897000,0.781000,0.622000,0.451000,0.324000,0.258000,0.248000,0.256000,0.248000,,,,,,,,,,,,,
57832,1689,,0,BLCDT20021204ABA,618885,US,1,1,WTVR-TV,25,,RICHMOND,VA,37.512648,77.601100,,412.400000,347.000000,410,ND,,,0.6,0,0,1,US,28547.0,1789051,28547.0,1789051,28547.0,1789051,,,,,,,,,,,,,,,,,,,,,,,,,,,,,,,,,,,,,,,,,,,,,,,,,,
57905,2171,,0,BLANK0000001574,2001241,US,1,1,WAZT-CD,45,,WOODSTOCK,VA,38.872196,77.698326,,389.900000,0.000000,4.80,DA,1000643,280.000000,0.0,0,3,3,US,3003.2,506629,3003.2,506629,3003.2,506629,,1.000000,0.976000,0.912000,0.822000,0.721000,0.617000,0.520000,0.438000,0.375000,0.323000,0.276000,0.237000,0.205000,0.172000,0.130000,0.099000,0.103000,0.133000,0.151000,0.133000,0.103000,0.099000,0.130000,0.172000,0.205000,0.237000,0.276000,0.323000,0.375000,0.438000,0.520000,0.617000,0.721000,0.822000,0.912000,0.976000,,,,,,,,,,,,,
60111,19,15,3,,,,,,,,,,,38.344289,79.596159,,1338.000000,470.000000,0.008,DA,108801,0.000000,0.0,,,1,,,,,,,,,0.974000,0.879000,0.717000,0.491000,0.224000,0.048000,0.010000,0.010000,0.010000,0.010000,0.010000,0.010000,0.010000,0.010000,0.010000,0.010000,0.010000,0.010000,0.010000,0.010000,0.010000,0.010000,0.010000,0.010000,0.010000,0.010000,0.010000,0.010000,0.010000,0.010000,0.048000,0.224000,0.491000,0.717000,0.879000,0.974000,,,,,,,,,,,,,
66219,14,11,2,,,,,,,,,,,40.713055,77.900001,,655.300000,281.600000,48.0,DA,,0.000000,1.0,,,1,,,,,,,,,0.666000,0.764000,0.877000,0.964000,0.999000,0.975000,0.918000,0.842000,0.731000,0.594000,0.444000,0.309000,0.250000,0.284000,0.361000,0.402000,0.374000,0.298000,0.253000,0.296000,0.427000,0.579000,0.727000,0.843000,0.917000,0.975000,0.999000,0.969000,0.889000,0.774000,0.673000,0.607000,0.569000,0.591000,0.568000,0.600000,,,,,,,,,,,,,
70309,1547,,0,BLCDT20040908AAE,1009759,US,1,1,WVIR-TV,32,,CHARLOTTESVILLE,VA,37.984029,78.481123,,535.700000,367.900000,1000,DA,67231,0.000000,1.0,0,0,1,US,28644.5,1768002,28644.5,1768002,28644.5,1768002,,0.979000,0.935000,0.876000,0.833000,0.817000,0.816000,0.821000,0.847000,0.899000,0.956000,0.987000,0.990000,0.981000,0.979000,0.982000,0.983000,0.987000,0.995000,1.000000,0.985000,0.956000,0.929000,0.917000,0.915000,0.920000,0.938000,0.968000,0.994000,1.000000,0.992000,0.985000,0.983000,0.981000,0.979000,0.985000,0.991000,,,,,,,,,,,,,
73120,1403,,0,BLCDT20051123AKN,1098453,US,1,1,WJAC-TV,34,,JOHNSTOWN,PA,40.371461,78.981972,,910.000000,386.000000,1000,DA,69309,0.000000,0.5,0,0,1,US,24193.1,1848628,24193.1,1848628,24193.1,1848628,,0.940000,0.987000,1.000000,0.988000,0.963000,0.936000,0.917000,0.905000,0.900000,0.899000,0.900000,0.905000,0.917000,0.936000,0.963000,0.988000,1.000000,0.987000,0.940000,0.854000,0.733000,0.588000,0.437000,0.302000,0.218000,0.207000,0.232000,0.245000,0.232000,0.207000,0.218000,0.302000,0.437000,0.588000,0.733000,0.854000,,,,,,,,,,,,,
74167,844,,0,BLCDT20090612AJJ,1294254,US,1,1,WVEC,13,,HAMPTON,VA,36.816538,76.468003,,368.300000,363.000000,35.0,ND,,,0.8,0,0,1,US,35047.2,2069051,35047.2,2069051,35047.2,2069051,,,,,,,,,,,,,,,,,,,,,,,,,,,,,,,,,,,,,,,,,,,,,,,,,,
76324,485,,0,BLCDT20100514ADM,1368280,US,1,1,WSKY-TV,9,,MANTEO,NC,36.520847,76.304162,,309.900000,306.000000,70.0,ND,,,0.8,0,0,1,US,36461.0,1920399,36461.0,1920399,36461.0,1920399,,,,,,,,,,,,,,,,,,,,,,,,,,,,,,,,,,,,,,,,,,,,,,,,,,
168449,2081,,0,BLDTL20100108ABD,1352843,US,1,1,WAZW-CD,46,,WOODSTOCK,VA,38.960110,78.330837,,662.000000,0.000000,15.0,DA,20358,35.000000,0.5,0,2,3,US,5947.5,298319,5947.5,298319,5947.5,298319,,1.000000,0.985000,0.951000,0.925000,0.929000,0.959000,0.990000,0.997000,0.975000,0.922000,0.845000,0.758000,0.680000,0.605000,0.510000,0.397000,0.302000,0.253000,0.241000,0.253000,0.302000,0.397000,0.510000,0.605000,0.680000,0.758000,0.845000,0.922000,0.975000,0.997000,0.990000,0.959000,0.929000,0.925000,0.951000,0.985000,,,,,,,,,,,,,
190915,1939,,0,BLDTL20130109ADM,1536642,US,1,1,WSVF-CD,43,,HARRISONBURG,VA,38.392904,78.770024,,913.200000,0.000000,13.0,DA,110559,0.000000,1.8,0,2,3,US,7521.2,297170,7521.2,297170,7521.2,297170,,1.000000,1.000000,1.000000,1.000000,1.000000,1.000000,1.000000,1.000000,1.000000,1.000000,1.000000,1.000000,1.000000,1.000000,1.000000,1.000000,1.000000,1.000000,1.000000,1.000000,1.000000,1.000000,1.000000,1.000000,1.000000,1.000000,1.000000,0.332000,1.000000,1.000000,1.000000,1.000000,1.000000,1.000000,1.000000,1.000000,,,,,,,,,,,,,
68136,2182,,0,BLANK0000001553,2001226,US,1,1,W47AO-D,47,,BERWICK,PA,41.005613,76.213517,,533.000000,0.000000,15.0,DA,1000571,330.000000,0.0,3,2,3,US,3944.1,245474,3944.1,245474,3944.1,245474,,1.000000,0.950000,0.870000,0.740000,0.600000,0.450000,0.325000,0.225000,0.190000,0.190000,0.200000,0.220000,0.240000,0.275000,0.270000,0.240000,0.220000,0.200000,0.190000,0.190000,0.225000,0.200000,0.425000,0.575000,0.725000,0.850000,0.950000,1.000000,0.950000,0.800000,0.550000,0.380000,0.380000,0.659000,0.800000,0.940000,,,,,,,,,,,,,
413,1507,,,,,,,,,,,,,,,,,,,,,,,,,,CA,308.4,0,308.4,0,308.4,0,,,,,,,,,,,,,,,,,,,,,,,,,,,,,,,,,,,,,,,,,,,,,,,,,,
415,1281,,,,,,,,,,,,,,,,,,,,,,,,,,CA,6620.9,544740,6620.9,544740,6620.9,544740,,,,,,,,,,,,,,,,,,,,,,,,,,,,,,,,,,,,,,,,,,,,,,,,,,
10869,1874,,,,,,,,,,,,,,,,,,,,,,,,,,CA,20.0,0,20.0,0,20.0,0,,,,,,,,,,,,,,,,,,,,,,,,,,,,,,,,,,,,,,,,,,,,,,,,,,
15567,2245,,0,BLANK0000001083,2000729,US,1,1,W16AX-D,16,,ITHACA,NY,42.429767,76.496579,,256.000000,0.000000,1.70,DA,19180,20.000000,1.0,0,3,3,US,542.2,77751,542.2,77751,542.2,77751,,1.000000,0.995000,0.945000,0.848000,0.725000,0.590000,0.457000,0.346000,0.277000,0.231000,0.195000,0.162000,0.137000,0.127000,0.139000,0.166000,0.198000,0.225000,0.240000,0.226000,0.197000,0.164000,0.136000,0.128000,0.153000,0.190000,0.222000,0.254000,0.301000,0.369000,0.459000,0.570000,0.693000,0.820000,0.928000,0.988000,,,,,,,,,,,,,
15569,2253,,0,BLTTA20050505AAV,1059303,US,1,1,WBGH-CA,20,,BINGHAMTON,NY,42.060909,75.942975,,594.000000,0.000000,0.161,ND,,,0.0,1,0,4,US,176.1,92410,176.1,92410,176.1,92410,,,,,,,,,,,,,,,,,,,,,,,,,,,,,,,,,,,,,,,,,,,,,,,,,,
16962,2269,,0,BLTVL19930202IE,181595,US,1,1,W07BV,7,,"WILKES-BARRE, ETC.",PA,41.198416,75.819639,,760.000000,0.000000,0.078,DA,21661,0.000000,0.0,3,0,4,US,178.3,129550,178.3,129550,178.3,129550,,0.952000,0.901000,0.769000,0.573000,0.342000,0.038000,0.019000,0.025000,0.033000,0.038000,0.038000,0.038000,0.038000,0.038000,0.046000,0.046000,0.041000,0.038000,0.038000,0.038000,0.038000,0.033000,0.028000,0.019000,0.023000,0.200000,0.488000,0.697000,0.855000,0.938000,0.928000,0.848000,0.981000,0.996000,0.889000,0.901000,,,,,,,,,,,,,
21252,733,,,,,,,,,,,,,,,,,,,,,,,,,,CA,60.2,0,60.2,0,60.2,0,,,,,,,,,,,,,,,,,,,,,,,,,,,,,,,,,,,,,,,,,,,,,,,,,,
34342,2153,,0,BLANK0000001609,2001271,US,1,1,WWDG-CD,28,,UTICA,NY,43.142764,75.175829,,381.000000,0.000000,12.7,DA,20495,170.000000,1.0,0,3,3,US,3286.6,273828,3286.6,273828,3286.6,273828,,0.930000,0.930000,0.940000,0.940000,0.960000,0.980000,1.000000,1.000000,0.980000,0.920000,0.840000,0.740000,0.620000,0.490000,0.380000,0.300000,0.260000,0.260000,0.260000,0.260000,0.260000,0.300000,0.380000,0.490000,0.620000,0.740000,0.840000,0.920000,0.980000,1.000000,1.000000,0.980000,0.960000,0.940000,0.940000,0.930000,,,,,,,,,,,,,
52077,2255,,0,BLTTA20041202ADB,1032248,US,1,1,W24DB,24,,CLARKS SUMMIT,PA,41.435912,75.729081,,718.800000,0.000000,17.5,DA,16528,15.000000,0.0,1,0,4,US,1324.2,224536,1324.2,224536,1324.2,224536,,1.000000,0.972000,0.906000,0.815000,0.713000,0.611000,0.517000,0.435000,0.368000,0.316000,0.269000,0.221000,0.168000,0.120000,0.094000,0.104000,0.147000,0.202000,0.236000,0.202000,0.147000,0.104000,0.094000,0.120000,0.168000,0.221000,0.269000,0.316000,0.368000,0.435000,0.517000,0.611000,0.713000,0.815000,0.906000,0.972000,,,,,,,,,,,,,
53734,1545,,0,BMLEDT20040916ABJ,1033870,US,1,1,WCNY-TV,25,,SYRACUSE,NY,42.945066,76.118257,,689.000000,393.000000,97.0,ND,,,0.8,0,0,1,US,22293.6,1280002,22293.6,1280002,22293.6,1280002,,,,,,,,,,,,,,,,,,,,,,,,,,,,,,,,,,,,,,,,,,,,,,,,,,
54176,1399,,,,,,,,,,,,,,,,,,,,,,,,,,CA,4745.9,440215,4745.9,440215,4745.9,440215,,,,,,,,,,,,,,,,,,,,,,,,,,,,,,,,,,,,,,,,,,,,,,,,,,
57274,114,,,,,,,,,,,,,,,,,,,,,,,,,,CA,47.5,0,47.5,0,47.5,0,,,,,,,,,,,,,,,,,,,,,,,,,,,,,,,,,,,,,,,,,,,,,,,,,,
57837,1590,,0,BLCDT20040217ADC,978351,US,1,1,WUTR,30,,UTICA,NY,43.145347,75.175996,,476.000000,227.000000,50.0,DA,45963,240.000000,0.5,0,0,1,US,10547.2,444787,10547.2,444787,10547.2,444787,,1.000000,0.994000,0.978000,0.951000,0.915000,0.871000,0.820000,0.767000,0.715000,0.668000,0.631000,0.609000,0.602000,0.608000,0.623000,0.642000,0.659000,0.672000,0.676000,0.672000,0.659000,0.642000,0.623000,0.608000,0.602000,0.609000,0.631000,0.668000,0.715000,0.767000,0.820000,0.871000,0.915000,0.951000,0.978000,0.994000,,,,,,,,,,,,,
58725,1367,,0,BLCDT20060509AAQ,1129055,US,1,1,WNYS-TV,44,,SYRACUSE,NY,42.880622,76.199649,,799.000000,445.000000,680,DA,29851,0.000000,0.8,0,0,1,US,26901.3,1443951,26901.3,1443951,26901.3,1443951,,0.733000,0.854000,0.940000,0.987000,1.000000,0.988000,0.963000,0.936000,0.917000,0.905000,0.900000,0.899000,0.900000,0.905000,0.917000,0.936000,0.963000,0.988000,1.000000,0.987000,0.940000,0.854000,0.733000,0.588000,0.437000,0.302000,0.218000,0.207000,0.232000,0.245000,0.232000,0.207000,0.218000,0.302000,0.437000,0.588000,,,,,,,,,,,,,
62137,1448,,,,,,,,,,,,,,,,,,,,,,,,,,CA,2520.5,127337,2520.5,127337,2520.5,127337,,,,,,,,,,,,,,,,,,,,,,,,,,,,,,,,,,,,,,,,,,,,,,,,,,
62219,1039,,0,BLCDT20090220ABG,1295792,US,1,1,WYDC,48,,CORNING,NY,42.141741,77.077191,,748.000000,334.000000,7.60,DA,87537,0.000000,0.8,0,0,1,US,8560.0,258517,8560.0,258517,8560.0,258517,,0.411000,0.463000,0.320000,0.520000,0.745000,0.891000,0.969000,0.969000,0.770000,0.636000,0.920000,0.955000,0.688000,0.659000,0.872000,0.933000,0.752000,0.645000,0.898000,0.981000,0.689000,0.667000,0.912000,0.986000,0.932000,0.817000,0.622000,0.368000,0.426000,0.453000,0.285000,0.264000,0.329000,0.345000,0.302000,0.269000,,,,,,,,,,,,,
64352,352,,0,BLCDT20110505ABK,1425894,US,1,1,WSPX-TV,15,,SYRACUSE,NY,43.305069,76.049643,,525.300000,379.000000,49.0,DA,97098,352.000000,0.8,0,0,1,US,17041.4,1037998,17041.4,1037998,17041.4,1037998,,0.231000,0.287000,0.373000,0.487000,0.616000,0.743000,0.853000,0.938000,0.987000,0.999000,0.979000,0.938000,0.893000,0.859000,0.842000,0.842000,0.859000,0.893000,0.938000,0.979000,0.999000,0.987000,0.938000,0.853000,0.743000,0.616000,0.487000,0.373000,0.287000,0.231000,0.200000,0.183000,0.175000,0.175000,0.183000,0.200000,,,,,,,,,,,,,
68851,184,,,,,,,,,,,,,,,,,,,,,,,,,,CA,7478.0,246906,7478.0,246906,7478.0,246906,,,,,,,,,,,,,,,,,,,,,,,,,,,,,,,,,,,,,,,,,,,,,,,,,,
70041,271,,,,,,,,,,,,,,,,,,,,,,,,,,CA,3366.2,561,3366.2,561,3366.2,561,,,,,,,,,,,,,,,,,,,,,,,,,,,,,,,,,,,,,,,,,,,,,,,,,,
71508,672,,0,BLCDT20090730AAH,1325489,US,1,1,WENY-TV,36,,ELMIRA,NY,42.142019,77.077469,,748.000000,342.000000,75.0,DA,90703,0.000000,0.8,0,0,1,US,14644.5,411240,14644.5,411240,14644.5,411240,,0.416000,0.465000,0.358000,0.449000,0.664000,0.839000,0.940000,0.933000,0.778000,0.738000,0.953000,0.963000,0.748000,0.674000,0.859000,0.922000,0.760000,0.708000,0.933000,0.983000,0.775000,0.713000,0.872000,0.952000,0.901000,0.759000,0.551000,0.370000,0.456000,0.457000,0.322000,0.287000,0.353000,0.364000,0.318000,0.292000,,,,,,,,,,,,,
71905,1227,,,,,,,,,,,,,,,,,,,,,,,,,,CA,12583.1,5448042,12583.1,5448042,12583.1,5448042,,,,,,,,,,,,,,,,,,,,,,,,,,,,,,,,,,,,,,,,,,,,,,,,,,
73113,1627,,0,BLCDT20030812ABK,678164,US,1,1,WSYR-TV,17,,SYRACUSE,NY,42.945066,76.024088,,707.000000,402.000000,105,DA,44725,0.000000,0.5,0,0,1,US,21971.4,1235720,21971.4,1235720,21971.4,1235720,,1.000000,0.994000,0.978000,0.951000,0.915000,0.871000,0.820000,0.767000,0.715000,0.668000,0.631000,0.609000,0.602000,0.608000,0.623000,0.642000,0.659000,0.672000,0.676000,0.672000,0.659000,0.642000,0.623000,0.608000,0.602000,0.609000,0.631000,0.668000,0.715000,0.767000,0.820000,0.871000,0.915000,0.951000,0.978000,0.994000,,,,,,,,,,,,,
73371,393,,,,,,,,,,,,,,,,,,,,,,,,,,CA,3474.8,561,3474.8,561,3474.8,561,,,,,,,,,,,,,,,,,,,,,,,,,,,,,,,,,,,,,,,,,,,,,,,,,,
73964,263,,,,,,,,,,,,,,,,,,,,,,,,,,CA,609.7,0,609.7,0,609.7,0,,,,,,,,,,,,,,,,,,,,,,,,,,,,,,,,,,,,,,,,,,,,,,,,,,
78908,1307,,0,BLEDT20060705ABL,1173720,US,1,1,WSKA,30,,CORNING,NY,42.141666,77.077222,,748.000000,334.000000,25.0,DA,76601,140.000000,0.8,0,0,1,US,12211.4,345972,12211.4,345972,12211.4,345972,,0.850000,0.912000,0.769000,0.753000,0.953000,0.979000,0.801000,0.738000,0.863000,0.929000,0.876000,0.729000,0.523000,0.385000,0.460000,0.454000,0.347000,0.329000,0.388000,0.394000,0.351000,0.324000,0.420000,0.458000,0.383000,0.428000,0.626000,0.809000,0.915000,0.917000,0.791000,0.776000,0.964000,0.970000,0.796000,0.700000,,,,,,,,,,,,,
168478,2092,,0,BLDTL20090924ABW,1334049,US,1,1,WNYF-CD,35,,WATERTOWN,NY,43.954233,75.728807,,484.300000,0.000000,15.0,DA,76489,0.000000,0.8,0,2,3,US,5984.5,128382,5984.5,128382,5984.5,128382,,0.214000,0.209000,0.309000,0.446000,0.587000,0.709000,0.812000,0.894000,0.957000,0.991000,0.999000,0.988000,0.956000,0.913000,0.882000,0.871000,0.871000,0.882000,0.913000,0.956000,0.988000,0.999000,0.991000,0.957000,0.894000,0.812000,0.709000,0.587000,0.446000,0.309000,0.209000,0.214000,0.281000,0.329000,0.329000,0.281000,,335,0.336000,335,0.336000,335,0.336000,335,0.336000,335,0.336000,335,0.336000
450,2055,,0,BLDTA20100812ABN,1365554,US,1,1,WNCE-CD,31,,GLENS FALLS,NY,43.289239,73.743453,,484.700000,0.000000,15.0,DA,89651,280.000000,0.8,0,2,3,US,5165.0,397146,5165.0,397146,5165.0,397146,,0.360000,0.390000,0.390000,0.380000,0.360000,0.430000,0.620000,0.830000,0.960000,1.000000,0.960000,0.800000,0.600000,0.400000,0.290000,0.230000,0.200000,0.200000,0.210000,0.200000,0.200000,0.230000,0.290000,0.400000,0.600000,0.800000,0.960000,1.000000,0.960000,0.830000,0.620000,0.430000,0.360000,0.380000,0.390000,0.390000,,,,,,,,,,,,,
10132,1204,,,,,,,,,,,,,,,,,,,,,,,,,,CA,4638.9,281842,4638.9,281842,4638.9,281842,,,,,,,,,,,,,,,,,,,,,,,,,,,,,,,,,,,,,,,,,,,,,,,,,,
11259,1259,,,,,,,,,,,,,,,,,,,,,,,,,,CA,3953.7,194561,3953.7,194561,3953.7,194561,,,,,,,,,,,,,,,,,,,,,,,,,,,,,,,,,,,,,,,,,,,,,,,,,,
69944,1271,,,,,,,,,,,,,,,,,,,,,,,,,,CA,6483.8,440010,6483.8,440010,6483.8,440010,,,,,,,,,,,,,,,,,,,,,,,,,,,,,,,,,,,,,,,,,,,,,,,,,,
167948,1981,,0,BLDTL20120131ACD,1485735,US,1,1,WFNY-CD,48,,GLOVERSVILLE,NY,43.101739,74.370415,,561.000000,0.000000,0.860,ND,,,0.0,0,2,3,US,2408.8,100743,2408.8,100743,2408.8,100743,,,,,,,,,,,,,,,,,,,,,,,,,,,,,,,,,,,,,,,,,,,,,,,,,,
47401,1482,,0,BLCDT20050617AAW,1066916,US,1,1,WTKR,40,,NORFOLK,VA,36.808760,76.503282,,380.000000,377.000000,950,ND,,,0.8,0,0,1,US,33166.3,2137854,33166.3,2137854,33166.3,2137854,,,,,,,,,,,,,,,,,,,,,,,,,,,,,,,,,,,,,,,,,,,,,,,,,,
67077,1740,,0,BLCDT20020510AAI,602443,US,1,1,WPXV-TV,46,,NORFOLK,VA,36.808760,76.503282,,363.000000,360.000000,1000,DA,19107,0.000000,1.0,0,0,1,US,27589.8,1901861,27589.8,1901861,27589.8,1901861,,0.983000,1.000000,0.992000,0.972000,0.949000,0.932000,0.923000,0.918000,0.917000,0.918000,0.923000,0.932000,0.949000,0.972000,0.992000,1.000000,0.983000,0.932000,0.845000,0.724000,0.581000,0.433000,0.305000,0.232000,0.229000,0.255000,0.268000,0.255000,0.229000,0.232000,0.305000,0.433000,0.581000,0.724000,0.845000,0.932000,,,,,,,,,,,,,
